,districtName,districtCity,lat,lon,name,gradeLevels,rating,percentLowIncome,enrollment,parentRating,numReviews,Asian,African American,Hispanic,White,Two or more races,American Indian/Alaska Native,studentsPerTeacher,Pacific Islander
0,Loudoun County Public Schools,Broadlands,38.977879,-77.544075,Madison's Trust Elementary,PK-5,10.0,4%,994,5,7,45.0,4.0,7.0,37.0,5.0,2.0,,
1,Arlington County Public Schools,Arlington,38.879723,-77.121857,Arlington Traditional,PK-5,10.0,26%,540,5,30,19.0,13.0,17.0,40.0,11.0,,14.0,
2,Arlington County Public Schools,Arlington,38.890186,-77.102219,Arlington Science Focus School,PK-5,10.0,23%,681,3,77,26.0,10.0,5.0,46.0,13.0,,15.0,
3,Fairfax County Public Schools,Falls Church,38.818085,-77.16832,Thomas Jefferson High for Science and Technology,9-12,10.0,1%,1786,4,42,68.0,2.0,2.0,21.0,5.0,2.0,16.0,1.0
4,Henrico County Public Schools,Richmond,37.635029,-77.632393,Gayton Elementary School,PK-5,10.0,8%,544,4,31,8.0,4.0,3.0,81.0,5.0,,17.0,
5,Loudoun County Public Schools,Broadlands,39.130226,-77.71891,Emerick Elementary School,PK-5,10.0,8%,482,4,29,5.0,1.0,8.0,80.0,5.0,,15.0,
6,Newport News City Public Schools,Newport News,37.072647,-76.475426,Deer Park Elementary School,PK-5,10.0,38%,547,4,19,3.0,32.0,10.0,47.0,7.0,1.0,19.0,
7,Richmond City Public Schools,Richmond,37.570812,-77.42997,Richmond Community High School,9-12,10.0,97%,236,5,16,1.0,70.0,6.0,21.0,2.0,,12.0,
8,Roanoke City Public Schools,Roanoke,37.244568,-79.952209,Crystal Spring Elementary School,PK-5,10.0,19%,344,4,16,1.0,10.0,1.0,87.0,1.0,,14.0,
9,Scott County Public Schools,Gate City,36.654678,-82.463684,Hilton Elementary School,PK-6,10.0,46%,139,0,0,,1.0,3.0,96.0,,,14.0,
10,VA Beach City Public Schools,Virginia Beach,36.766544,-76.0186,Strawbridge Elementary School,PK-5,10.0,16%,674,5,31,3.0,4.0,8.0,74.0,11.0,,16.0,1.0
11,VA Beach City Public Schools,Virginia Beach,36.749569,-76.034264,Kemps Landing Magnet,2-8,10.0,9%,1181,4,38,18.0,4.0,5.0,63.0,9.0,,14.0,1.0
12,VA Beach City Public Schools,Virginia Beach,36.861954,-76.094887,Kingston Elementary School,PK-5,10.0,8%,526,5,34,8.0,2.0,6.0,76.0,8.0,,14.0,
13,VA Beach City Public Schools,Virginia Beach,36.740246,-76.073639,North Landing Elementary School,PK-5,10.0,13%,461,5,28,7.0,8.0,9.0,63.0,11.0,,15.0,1.0
14,Washington County Public Schools,Abingdon,36.614601,-82.111298,High Point Elementary School,PK-5,10.0,51%,592,5,3,,1.0,1.0,94.0,4.0,,14.0,
15,Washington County Public Schools,Abingdon,36.67178,-81.955803,Watauga Elementary School,PK-5,10.0,47%,565,5,6,4.0,1.0,3.0,89.0,2.0,,16.0,
16,West Point Public Schools,West Point,37.556789,-76.79615,West Point High School,9-12,10.0,42%,273,5,5,3.0,7.0,4.0,77.0,8.0,1.0,13.0,
17,Wise County Public Schools,Wise,36.884159,-82.738251,Powell Valley Primary School,PK-4,10.0,85%,786,5,2,,3.0,1.0,94.0,2.0,,15.0,
18,Wythe County Public Schools,Wytheville,36.907394,-81.264542,Rural Retreat Elementary School,PK-5,10.0,52%,373,3,4,1.0,4.0,2.0,94.0,,,18.0,
19,Henrico County Public Schools,Richmond,37.67564,-77.59964,Deep Run High School,9-12,10.0,5%,1793,3,60,15.0,6.0,5.0,70.0,4.0,,18.0,
20,Prince William County Public Schools,Manassas,38.617466,-77.277061,Mary G. Porter Traditional,1-8,10.0,26%,683,3,57,20.0,37.0,12.0,26.0,4.0,,17.0,
21,Henrico County Public Schools,Richmond,37.69265,-77.631104,Kaechele Elementary,PK-5,9.0,2%,429,5,2,34.0,3.0,4.0,54.0,5.0,,18.0,
22,Arlington County Public Schools,Arlington,38.892635,-77.121277,Glebe Elementary School,PK-5,9.0,17%,625,5,22,9.0,8.0,18.0,59.0,6.0,,12.0,
23,Arlington County Public Schools,Arlington,38.91711,-77.139709,Jamestown Elementary School,PK-5,9.0,3%,610,4,66,5.0,1.0,7.0,78.0,8.0,,14.0,
24,Arlington County Public Schools,Arlington,38.90715,-77.113464,Taylor Elementary School,PK-5,9.0,4%,674,5,38,6.0,3.0,5.0,77.0,10.0,,16.0,
25,Arlington County Public Schools,Arlington,38.892921,-77.159691,Tuckahoe Elementary School,PK-5,9.0,1%,535,4,71,6.0,1.0,6.0,81.0,6.0,,17.0,
26,Chesapeake Public Schools,Chesapeake,36.707424,-76.235062,Great Bridge Middle School,6-8,9.0,13%,1397,4,40,4.0,9.0,8.0,72.0,7.0,,16.0,
27,Chesapeake Public Schools,Chesapeake,36.713562,-76.177742,Butts Road Intermediate School,3-5,9.0,13%,657,4,8,3.0,4.0,7.0,79.0,7.0,,18.0,
28,Chesterfield County Public Schools,Chesterfield,37.42662,-77.689796,Woolridge Elementary School,PK-5,9.0,10%,786,5,36,6.0,8.0,4.0,78.0,4.0,,18.0,
29,Dinwiddie County Public Schools,Dinwiddie,37.196087,-77.614899,Midway Elementary School,K-5,9.0,48%,388,3,14,,13.0,3.0,80.0,3.0,,15.0,
30,Fairfax County Public Schools,Falls Church,38.918243,-77.155075,Chesterbrook Elementary School,PK-6,9.0,0%,669,4,64,17.0,1.0,4.0,70.0,8.0,,14.0,
31,Fairfax County Public Schools,Falls Church,38.951443,-77.191757,Cooper Middle School,7-8,9.0,1%,912,4,29,20.0,2.0,6.0,65.0,6.0,,13.0,
32,Fairfax County Public Schools,Falls Church,38.904091,-77.173592,Haycock Elementary School,PK-6,9.0,1%,967,4,52,27.0,2.0,8.0,53.0,10.0,,16.0,
33,Fairfax County Public Schools,Falls Church,38.78101,-77.221741,Keene Mill Elementary School,K-6,9.0,18%,774,4,72,19.0,12.0,20.0,42.0,7.0,,17.0,
34,Fairfax County Public Schools,Falls Church,38.92149,-77.175568,Kent Gardens Elementary School,PK-6,9.0,1%,1025,3,80,17.0,3.0,7.0,64.0,7.0,,16.0,
35,Fairfax County Public Schools,Falls Church,38.948292,-77.165741,Langley High School,9-12,9.0,1%,1965,3,81,24.0,2.0,5.0,64.0,5.0,,16.0,
36,Fairfax County Public Schools,Falls Church,38.909538,-77.174545,Longfellow Middle School,7-8,9.0,7%,1364,3,78,30.0,2.0,9.0,53.0,6.0,,17.0,
37,Fairfax County Public Schools,Falls Church,38.869888,-77.28595,Mosby Woods Elementary School,PK-6,9.0,21%,1065,4,55,29.0,7.0,17.0,41.0,6.0,,15.0,
38,Fairfax County Public Schools,Falls Church,38.889149,-77.37883,Navy Elementary School,PK-6,9.0,4%,983,4,47,43.0,5.0,5.0,40.0,7.0,,15.0,
39,Fairfax County Public Schools,Falls Church,38.880081,-77.30426,Oakton Elementary School,PK-6,9.0,8%,821,4,16,23.0,5.0,12.0,52.0,8.0,,15.0,
40,Fairfax County Public Schools,Falls Church,38.93903,-77.228394,Spring Hill Elementary School,PK-6,9.0,4%,1011,4,120,36.0,3.0,6.0,48.0,7.0,,16.0,
41,Fairfax County Public Schools,Falls Church,38.784073,-77.164696,Springfield Estates Elementary School,PK-6,9.0,31%,903,5,15,20.0,16.0,28.0,29.0,6.0,,15.0,
42,Fairfax County Public Schools,Falls Church,38.769123,-77.219048,West Springfield Elementary School,PK-6,9.0,7%,533,4,57,8.0,8.0,14.0,62.0,9.0,1.0,14.0,
43,Fairfax County Public Schools,Falls Church,38.920948,-77.245186,Westbriar Elementary School,PK-6,9.0,4%,858,4,61,34.0,3.0,8.0,48.0,7.0,,15.0,
44,Fairfax County Public Schools,Falls Church,38.917503,-77.266426,Wolftrap Elementary School,PK-6,9.0,1%,593,4,30,15.0,1.0,8.0,68.0,7.0,,15.0,
45,Fairfax County Public Schools,Falls Church,38.927563,-77.382324,Fox Mill Elementary School,PK-6,9.0,5%,570,4,48,15.0,2.0,8.0,54.0,21.0,,15.0,
46,Fairfax County Public Schools,Falls Church,38.755081,-77.272575,Sangster Elementary School,PK-6,9.0,2%,968,4,114,11.0,6.0,10.0,63.0,9.0,,16.0,
47,Fairfax County Public Schools,Falls Church,38.863136,-77.414749,Poplar Tree Elementary School,PK-6,9.0,5%,762,4,40,40.0,3.0,8.0,45.0,3.0,1.0,12.0,
48,Gloucester County Public Schools,Gloucester,37.416721,-76.534103,Botetourt Elementary School,PK-5,9.0,38%,622,5,20,1.0,6.0,8.0,75.0,10.0,,14.0,
49,Gloucester County Public Schools,Gloucester,37.410332,-76.605171,Bethel Elementary School,PK-5,9.0,35%,491,5,10,,5.0,5.0,81.0,8.0,,15.0,
50,Hampton City Public Schools,Hampton,37.009731,-76.364677,Armstrong Elementary School,K-5,9.0,32%,304,5,41,,34.0,8.0,47.0,11.0,,13.0,
51,Hampton City Public Schools,Hampton,37.045338,-76.307236,Francis W. Jones Magnet Middle School,6-8,9.0,41%,652,4,17,1.0,42.0,7.0,43.0,6.0,,13.0,
52,Henrico County Public Schools,Richmond,37.694588,-77.614677,Shady Grove Elementary School,PK-5,9.0,4%,717,4,36,30.0,4.0,4.0,56.0,5.0,,18.0,
53,Henrico County Public Schools,Richmond,37.649414,-77.611923,Short Pump Elementary School,PK-5,9.0,12%,567,5,32,33.0,4.0,4.0,55.0,4.0,,18.0,
54,Henrico County Public Schools,Richmond,37.58419,-77.552498,Tuckahoe Elementary School,PK-5,9.0,4%,658,5,4,2.0,,3.0,94.0,1.0,,19.0,
55,Henrico County Public Schools,Richmond,37.655811,-77.639282,Nuckols Farm Elementary School,PK-5,9.0,5%,599,5,8,13.0,4.0,3.0,77.0,3.0,1.0,19.0,1.0
56,Loudoun County Public Schools,Broadlands,39.118839,-77.696144,Lincoln Elementary School,PK-5,9.0,7%,100,4,46,1.0,4.0,5.0,87.0,3.0,,16.0,
57,Loudoun County Public Schools,Broadlands,39.144497,-77.762466,Round Hill Elementary School,PK-5,9.0,6%,544,5,13,3.0,3.0,9.0,79.0,6.0,,16.0,
58,Loudoun County Public Schools,Broadlands,39.041866,-77.349632,Lowes Island Elementary School,PK-5,9.0,6%,649,3,63,18.0,4.0,9.0,62.0,6.0,,18.0,
59,Patrick County Public Schools,Stuart,36.595093,-80.51564,Blue Ridge Elementary School,PK-7,9.0,64%,267,4,9,,1.0,8.0,89.0,1.0,,13.0,
60,Patrick County Public Schools,Stuart,36.641621,-80.276093,Stuart Elementary School,PK-7,9.0,53%,406,5,1,,6.0,8.0,81.0,4.0,,15.0,
61,Pittsylvania County Public Schools,Chatham,37.093361,-79.297211,John L. Hurt Elementary School,PK-5,9.0,71%,272,0,0,,22.0,,71.0,7.0,,15.0,
62,Pittsylvania County Public Schools,Chatham,36.68808,-79.37336,Southside Elementary School,PK-5,9.0,65%,462,0,0,,32.0,4.0,59.0,5.0,,14.0,
63,Pittsylvania County Public Schools,Chatham,36.769905,-79.544846,Union Hall Elementary School,PK-5,9.0,66%,233,0,0,,25.0,5.0,68.0,3.0,,12.0,
64,Prince George County Public Schools,Prince George,37.224701,-77.28492,L.L. Beazley Elementary School,PK-5,9.0,50%,606,4,38,1.0,43.0,14.0,33.0,8.0,,16.0,
65,Prince William County Public Schools,Manassas,38.653137,-77.345039,Minnieville Elementary School,PK-5,9.0,71%,510,4,7,9.0,28.0,51.0,9.0,3.0,,14.0,
66,Prince William County Public Schools,Manassas,38.673855,-77.368156,Sonnie Penn Elementary School,PK-5,9.0,37%,876,4,42,14.0,25.0,26.0,27.0,9.0,,18.0,
67,Richmond City Public Schools,Richmond,37.537628,-77.450882,Open High School,9-12,9.0,98%,181,4,9,4.0,41.0,8.0,43.0,3.0,1.0,14.0,
68,Roanoke City Public Schools,Roanoke,37.246021,-79.991386,Grandin Court Elementary School,PK-5,9.0,32%,342,4,32,1.0,14.0,4.0,78.0,2.0,,14.0,
69,Rockbridge County Public Schools,Lexington,37.781239,-79.3563,Mountain View Elementary School,PK-5,9.0,51%,124,5,9,2.0,2.0,1.0,94.0,2.0,1.0,11.0,
70,Russell County Public Schools,Lebanon,36.979099,-81.8694,Belfast Elk Garden Elementary School,K-5,9.0,61%,84,5,3,,,1.0,99.0,,,12.0,
71,Russell County Public Schools,Lebanon,37.019341,-81.946594,Honaker Elementary School,PK-7,9.0,63%,652,3,9,,,1.0,98.0,,,14.0,
72,Scott County Public Schools,Gate City,36.622566,-82.555229,Weber City Elementary School,PK-6,9.0,53%,329,5,6,1.0,1.0,2.0,96.0,,,18.0,
73,Scott County Public Schools,Gate City,36.617371,-82.628983,Yuma Elementary School,PK-6,9.0,51%,191,4,1,,,,99.0,1.0,,14.0,
74,VA Beach City Public Schools,Virginia Beach,36.897972,-76.05954,Great Neck Middle School,6-8,9.0,26%,1183,4,13,4.0,10.0,9.0,68.0,9.0,,15.0,
75,VA Beach City Public Schools,Virginia Beach,36.803944,-76.087486,Holland Elementary School,PK-5,9.0,79%,620,3,32,6.0,43.0,16.0,22.0,12.0,,12.0,
76,VA Beach City Public Schools,Virginia Beach,36.757744,-76.055763,Princess Anne Middle School,6-8,9.0,11%,1509,4,36,4.0,4.0,7.0,78.0,6.0,,16.0,
77,VA Beach City Public Schools,Virginia Beach,36.898418,-76.147636,Shelton Park Elementary School,PK-5,9.0,52%,423,4,18,2.0,17.0,22.0,48.0,10.0,,14.0,
78,VA Beach City Public Schools,Virginia Beach,36.798038,-76.10022,Rosemont Elementary School,PK-5,9.0,67%,443,5,10,9.0,40.0,15.0,22.0,14.0,,11.0,
79,VA Beach City Public Schools,Virginia Beach,36.773247,-76.12085,Salem Elementary School,PK-5,9.0,37%,490,5,19,10.0,23.0,15.0,41.0,9.0,1.0,15.0,1.0
80,VA Beach City Public Schools,Virginia Beach,36.7481,-75.999748,Red Mill Elementary School,PK-5,9.0,13%,641,5,23,6.0,3.0,8.0,78.0,5.0,,16.0,
81,VA Beach City Public Schools,Virginia Beach,36.779446,-76.197296,Tallwood Elementary School,PK-5,9.0,39%,599,3,22,10.0,25.0,14.0,34.0,15.0,,13.0,1.0
82,Washington County Public Schools,Abingdon,36.751545,-82.045494,Greendale Elementary School,PK-5,9.0,54%,339,5,14,1.0,1.0,4.0,92.0,2.0,,13.0,
83,Wise County Public Schools,Wise,36.948273,-82.468445,Coeburn Primary School,PK-4,9.0,83%,457,3,10,,1.0,,97.0,2.0,,14.0,
84,Wise County Public Schools,Wise,37.110909,-82.598869,J.W. Adams Combined,PK-8,9.0,84%,457,4,4,,,1.0,98.0,,,14.0,
85,Wise County Public Schools,Wise,36.908451,-82.309799,St. Paul Elementary School,PK-8,9.0,86%,232,4,7,,1.0,1.0,97.0,,,14.0,
86,Wise County Public Schools,Wise,36.9744,-82.576012,L.F. Addington Middle School,5-8,9.0,72%,498,5,3,1.0,2.0,1.0,95.0,,,14.0,
87,Wythe County Public Schools,Wytheville,36.886642,-80.992767,Sheffey Elementary School,PK-5,9.0,54%,251,5,1,,,,99.0,,,20.0,
88,York County Public Schools,Yorktown,37.094398,-76.423477,Bethel Manor Elementary School,PK-5,9.0,52%,600,5,29,2.0,18.0,20.0,50.0,9.0,1.0,16.0,
89,York County Public Schools,Yorktown,37.186195,-76.44503,Seaford Elementary School,K-5,9.0,22%,441,5,27,3.0,3.0,6.0,80.0,7.0,,16.0,
90,York County Public Schools,Yorktown,37.113564,-76.431274,Tabb Elementary School,PK-5,9.0,22%,615,4,44,7.0,12.0,10.0,60.0,11.0,,17.0,
91,York County Public Schools,Yorktown,37.124691,-76.450615,Tabb Middle School,6-8,9.0,22%,860,4,18,7.0,12.0,13.0,57.0,10.0,,17.0,1.0
92,York County Public Schools,Yorktown,37.106663,-76.439865,Coventry Elementary School,PK-5,9.0,18%,567,4,33,14.0,12.0,8.0,55.0,10.0,,18.0,1.0
93,Roanoke County Public Schools,Roanoke,37.331699,-79.882202,Bonsack Elementary School,PK-5,9.0,15%,350,4,11,4.0,3.0,3.0,84.0,5.0,,15.0,
94,Loudoun County Public Schools,Broadlands,39.013885,-77.515793,Mill Run Elementary School,PK-5,9.0,3%,910,5,28,36.0,3.0,4.0,51.0,5.0,,18.0,
95,Chesapeake Public Schools,Chesapeake,36.714096,-76.335327,Grassfield Elementary School,PK-5,9.0,15%,984,4,26,2.0,15.0,12.0,61.0,10.0,,20.0,
96,Fairfax County Public Schools,Falls Church,38.946602,-77.265297,Colvin Run Elementary School,PK-6,9.0,1%,779,4,55,31.0,2.0,4.0,57.0,6.0,,15.0,
97,Prince William County Public Schools,Manassas,38.841228,-77.654884,J.W. Alvey Elementary School,PK-5,9.0,4%,689,3,17,12.0,7.0,6.0,66.0,9.0,,17.0,
98,Prince William County Public Schools,Manassas,38.754631,-77.482513,Pennington School,1-8,9.0,16%,643,4,51,20.0,19.0,16.0,36.0,8.0,,17.0,
99,Loudoun County Public Schools,Broadlands,38.9925,-77.530952,Briar Woods High School,9-12,9.0,4%,1764,4,41,24.0,5.0,8.0,57.0,5.0,,16.0,
100,Chesterfield County Public Schools,Chesterfield,37.406757,-77.701599,Cosby High School,9-12,9.0,9%,2186,4,63,5.0,13.0,6.0,72.0,4.0,,17.0,
101,Henrico County Public Schools,Richmond,37.660538,-77.61441,Colonial Trail Elementary School,PK-5,9.0,10%,689,5,208,57.0,7.0,5.0,27.0,4.0,,16.0,
102,Chesapeake Public Schools,Chesapeake,36.712063,-76.318726,Grassfield High School,9-12,9.0,13%,2071,4,44,3.0,16.0,9.0,63.0,9.0,,16.0,
103,Henrico County Public Schools,Richmond,37.689758,-77.590057,Holman Middle School,6-8,9.0,15%,1023,4,26,27.0,10.0,5.0,52.0,5.0,,17.0,
104,VA Beach City Public Schools,Virginia Beach,36.804672,-76.111404,Green Run Collegiate,9-12,8.0,45%,336,0,0,7.0,40.0,13.0,28.0,12.0,1.0,11.0,1.0
105,Arlington County Public Schools,Arlington,38.908524,-77.147293,Discovery Elementary School,PK-5,8.0,3%,621,4,225,7.0,2.0,8.0,74.0,9.0,,14.0,
106,Norfolk City Public Schools,Norfolk,36.883408,-76.262856,The Academy for Discovery at Lakewood,3-8,8.0,36%,807,5,4,3.0,40.0,7.0,43.0,7.0,,14.0,1.0
107,Albemarle County Public Schools,Charlottesville,38.057068,-78.613358,Virginia L Murray Elementary School,PK-5,8.0,9%,266,5,21,8.0,3.0,5.0,74.0,9.0,,12.0,
108,Albemarle County Public Schools,Charlottesville,38.081245,-78.598076,Meriwether Lewis Elementary School,K-5,8.0,10%,432,0,0,3.0,1.0,3.0,90.0,2.0,,12.0,
109,Arlington County Public Schools,Arlington,38.900463,-77.151123,Nottingham Elementary School,K-5,8.0,3%,523,3,75,8.0,1.0,7.0,76.0,9.0,,17.0,
110,Arlington County Public Schools,Arlington,38.909336,-77.147171,Williamsburg Middle School,6-8,8.0,11%,1316,4,64,6.0,6.0,13.0,68.0,6.0,,13.0,
111,Bath County Public Schools,Warm Springs,37.977577,-79.606781,Millboro Elementary School,PK-7,8.0,60%,142,5,1,,1.0,4.0,94.0,1.0,,9.0,
112,Botetourt County Public Schools,Fincastle,37.502426,-79.873177,Breckinridge Elementary School,PK-5,8.0,35%,203,3,4,,2.0,1.0,94.0,3.0,,12.0,
113,Botetourt County Public Schools,Fincastle,37.512218,-79.704056,Buchanan Elementary School,PK-5,8.0,48%,259,4,9,,1.0,3.0,91.0,5.0,,11.0,
114,Botetourt County Public Schools,Fincastle,37.362823,-79.900024,Cloverdale Elementary School,PK-5,8.0,18%,269,4,11,1.0,3.0,3.0,88.0,4.0,,14.0,
115,Botetourt County Public Schools,Fincastle,37.656311,-79.811165,Eagle Rock Elementary School,PK-5,8.0,52%,146,0,0,,1.0,,95.0,4.0,,11.0,
116,Bristol City Public Schools,Bristol,36.611099,-82.1782,Washington Lee Elementary School,PK-5,8.0,98%,201,5,1,1.0,11.0,6.0,70.0,12.0,,12.0,
117,Carroll County Public Schools,Hillsville,36.689926,-80.697662,Fancy Gap Elementary School,PK-5,8.0,41%,150,5,2,1.0,1.0,3.0,95.0,,1.0,10.0,
118,Charlotte County Public Schools,Charlotte Court House,37.04118,-78.553467,Eureka Elementary School,PK-5,8.0,60%,449,5,1,1.0,22.0,4.0,65.0,8.0,,14.0,
119,Chesapeake Public Schools,Chesapeake,36.656994,-76.222054,Southeastern Elementary School,PK-5,8.0,11%,821,4,35,5.0,4.0,7.0,76.0,7.0,,17.0,
120,Chesapeake Public Schools,Chesapeake,36.688915,-76.238045,Great Bridge Intermediate School,3-5,8.0,19%,674,4,30,3.0,7.0,10.0,72.0,8.0,,19.0,
121,Chesapeake Public Schools,Chesapeake,36.650143,-76.215546,Hickory High School,9-12,8.0,9%,1790,4,57,2.0,7.0,7.0,79.0,5.0,,16.0,
122,Chesapeake Public Schools,Chesapeake,36.723343,-76.300491,Cedar Road Elementary School,PK-5,8.0,15%,858,4,38,6.0,10.0,10.0,67.0,7.0,1.0,18.0,
123,Chesapeake Public Schools,Chesapeake,36.733856,-76.340622,Hugo A. Owens Middle School,6-8,8.0,31%,1189,4,41,3.0,37.0,10.0,42.0,7.0,,14.0,
124,Chesterfield County Public Schools,Chesterfield,37.549316,-77.65239,Bettie Weaver Elementary School,PK-5,8.0,2%,666,4,63,2.0,1.0,2.0,93.0,1.0,,19.0,
125,Chesterfield County Public Schools,Chesterfield,37.496616,-77.660591,Midlothian High School,9-12,8.0,10%,1686,4,43,7.0,10.0,5.0,73.0,4.0,,17.0,
126,Dickenson County Public Schools,Clintwood,37.158028,-82.442947,Clintwood Elementary School,PK-5,8.0,78%,501,1,8,,1.0,1.0,97.0,1.0,,14.0,
127,Dickenson County Public Schools,Clintwood,37.067307,-82.34346,Ervinton Elementary School,PK-5,8.0,79%,117,0,0,,2.0,,98.0,,,10.0,
128,Fairfax County Public Schools,Falls Church,38.838306,-77.168556,Belvedere Elementary School,PK-5,8.0,51%,734,5,35,11.0,16.0,45.0,24.0,4.0,1.0,11.0,
129,Fairfax County Public Schools,Falls Church,38.820568,-77.249634,Canterbury Woods Elementary School,PK-6,8.0,11%,812,4,65,28.0,5.0,11.0,49.0,7.0,,14.0,
130,Fairfax County Public Schools,Falls Church,38.946404,-77.189537,Churchill Road Elementary School,PK-6,8.0,0%,761,3,27,33.0,3.0,7.0,49.0,8.0,,16.0,
131,Fairfax County Public Schools,Falls Church,38.89621,-77.285141,Flint Hill Elementary School,PK-6,8.0,5%,688,4,69,14.0,1.0,9.0,67.0,8.0,,16.0,
132,Fairfax County Public Schools,Falls Church,38.935848,-77.414955,Floris Elementary School,PK-6,8.0,3%,771,4,26,60.0,4.0,5.0,26.0,6.0,,15.0,
133,Fairfax County Public Schools,Falls Church,38.935238,-77.174438,Sherman Elementary School,PK-6,8.0,3%,417,5,37,22.0,4.0,10.0,58.0,7.0,,12.0,
134,Fairfax County Public Schools,Falls Church,38.836819,-77.273376,Frost Middle School,7-8,8.0,11%,1214,3,23,27.0,4.0,12.0,50.0,6.0,,14.0,
135,Fairfax County Public Schools,Falls Church,39.001659,-77.291901,Great Falls Elementary School,PK-6,8.0,4%,519,3,30,13.0,1.0,6.0,68.0,11.0,,15.0,
136,Fairfax County Public Schools,Falls Church,38.762173,-77.243477,Hunt Valley Elementary School,PK-6,8.0,9%,692,5,47,17.0,9.0,11.0,56.0,7.0,,14.0,
137,Fairfax County Public Schools,Falls Church,38.781796,-77.224442,Irving Middle School,7-8,8.0,13%,1136,4,42,14.0,11.0,18.0,50.0,7.0,,15.0,
138,Fairfax County Public Schools,Falls Church,38.803532,-77.265839,Lake Braddock Secondary,7-12,8.0,16%,4297,4,58,20.0,7.0,18.0,48.0,7.0,,15.0,
139,Fairfax County Public Schools,Falls Church,38.84737,-77.259285,Mantua Elementary School,PK-6,8.0,12%,1075,4,45,28.0,3.0,12.0,48.0,8.0,,14.0,
140,Fairfax County Public Schools,Falls Church,38.940395,-77.320328,Sunrise Valley Elementary School,PK-6,8.0,10%,575,4,66,11.0,8.0,11.0,57.0,14.0,,12.0,
141,Fairfax County Public Schools,Falls Church,38.725117,-77.055878,Waynewood Elementary School,PK-6,8.0,2%,735,4,33,1.0,1.0,5.0,86.0,5.0,,17.0,
142,Fairfax County Public Schools,Falls Church,38.786068,-77.240128,West Springfield High School,9-12,8.0,12%,2219,4,50,14.0,10.0,16.0,54.0,6.0,,16.0,
143,Fairfax County Public Schools,Falls Church,38.839909,-77.275177,Woodson High School,9-12,8.0,11%,2477,4,64,24.0,5.0,12.0,53.0,6.0,,14.0,
144,Fairfax County Public Schools,Falls Church,38.927639,-77.419365,Carson Middle School,7-8,8.0,9%,1475,5,16,45.0,6.0,9.0,33.0,6.0,,15.0,
145,Fairfax County Public Schools,Falls Church,38.993534,-77.328346,Forestville Elementary School,PK-6,8.0,1%,581,4,35,22.0,1.0,6.0,61.0,10.0,,15.0,
146,Fairfax County Public Schools,Falls Church,38.874325,-77.409698,Rocky Run Middle School,7-8,8.0,12%,1322,4,35,47.0,4.0,11.0,32.0,6.0,,17.0,
147,Fairfax County Public Schools,Falls Church,38.785545,-77.298393,Terra Centre Elementary School,PK-6,8.0,9%,598,4,63,11.0,5.0,15.0,63.0,6.0,,14.0,
148,Fairfax County Public Schools,Falls Church,38.907112,-77.420532,Franklin Middle School,7-8,8.0,16%,882,4,12,25.0,7.0,13.0,49.0,6.0,,13.0,
149,Fairfax County Public Schools,Falls Church,38.914955,-77.362144,Crossfield Elementary School,PK-6,8.0,4%,669,4,22,25.0,2.0,7.0,62.0,4.0,,14.0,
150,Fairfax County Public Schools,Falls Church,38.831856,-77.379784,Willow Springs Elementary School,PK-6,8.0,9%,962,4,39,43.0,4.0,7.0,39.0,6.0,,15.0,
151,Falls Church City Public Schools,Falls Church,38.896702,-77.191704,George Mason High School,9-12,8.0,0%,840,4,37,8.0,4.0,13.0,65.0,9.0,,12.0,
152,Floyd County Public Schools,Floyd,36.86359,-80.466377,Willis Elementary School,PK-7,8.0,66%,224,5,1,1.0,,11.0,84.0,4.0,,17.0,
153,Franklin County Public Schools,Rocky Mount,37.011787,-80.047684,Callaway Elementary School,PK-5,8.0,60%,244,0,1,,1.0,9.0,85.0,3.0,1.0,11.0,
154,Franklin County Public Schools,Rocky Mount,36.84903,-79.928482,Henry Elementary School,PK-5,8.0,84%,207,5,6,,3.0,4.0,87.0,5.0,,12.0,
155,Franklin County Public Schools,Rocky Mount,36.8339,-79.754662,Snow Creek Elementary School,PK-5,8.0,60%,204,5,2,1.0,6.0,6.0,83.0,3.0,,11.0,
156,Grayson County Public Schools,Independence,36.5839,-80.910027,Fairview Elementary School,K-5,8.0,72%,102,5,1,,2.0,14.0,82.0,2.0,,14.0,
157,Hanover County Public Schools,Ashland,37.677917,-77.389748,Pearson's Corner Elementary School,PK-5,8.0,6%,583,4,17,4.0,6.0,4.0,82.0,4.0,1.0,15.0,
158,Hanover County Public Schools,Ashland,37.664509,-77.339729,Rural Point Elementary School,PK-5,8.0,14%,501,4,4,1.0,4.0,2.0,88.0,4.0,1.0,13.0,
159,Hanover County Public Schools,Ashland,37.669365,-77.411743,Cool Spring Elementary School,PK-5,8.0,7%,661,4,4,3.0,5.0,3.0,85.0,4.0,,15.0,
160,Henrico County Public Schools,Richmond,37.666874,-77.6101,Short Pump Middle School,6-8,8.0,6%,863,3,31,19.0,6.0,6.0,65.0,4.0,,16.0,
161,Henrico County Public Schools,Richmond,37.678669,-77.523491,Glen Allen Elementary School,PK-5,8.0,13%,656,4,26,15.0,14.0,5.0,61.0,5.0,,18.0,
162,Henrico County Public Schools,Richmond,37.608349,-77.579468,Pemberton Elementary School,PK-5,8.0,19%,301,5,16,2.0,11.0,7.0,71.0,9.0,,15.0,1.0
163,Henry County Public Schools,Martinsville,36.63953,-79.872253,Rich Acres Elementary School,PK-5,8.0,84%,286,5,1,1.0,45.0,11.0,38.0,5.0,,12.0,
164,Lancaster County Public Schools,Weems,37.752312,-76.415108,Lancaster Primary School,PK-3,8.0,80%,394,0,0,1.0,64.0,1.0,30.0,4.0,,15.0,1.0
165,Lee County Public Schools,Jonesville,36.628639,-83.528732,Elydale Elementary School,5-7,8.0,91%,146,3,3,,1.0,4.0,95.0,,,15.0,
166,Lee County Public Schools,Jonesville,36.789761,-83.056854,St. Charles Elementary School,PK-5,8.0,79%,188,4,1,,,1.0,99.0,1.0,,12.0,
167,Loudoun County Public Schools,Broadlands,39.187504,-77.605988,Waterford Elementary School,PK-5,8.0,1%,164,4,15,3.0,1.0,4.0,83.0,9.0,1.0,14.0,
168,Loudoun County Public Schools,Broadlands,39.020847,-77.514008,Hillside Elementary School,PK-5,8.0,5%,785,4,19,29.0,4.0,8.0,50.0,9.0,,17.0,
169,Patrick County Public Schools,Stuart,36.736706,-80.400833,Meadows Of Dan Elementary School,PK-7,8.0,15%,495,5,2,4.0,18.0,6.0,68.0,2.0,,28.0,1.0
170,Patrick County Public Schools,Stuart,36.643208,-80.199593,Patrick Springs Elementary School,PK-3,8.0,61%,263,5,1,,9.0,6.0,78.0,7.0,,13.0,
171,Patrick County Public Schools,Stuart,36.788342,-80.275566,Woolwine Elementary School,PK-7,8.0,59%,181,0,0,,2.0,8.0,86.0,4.0,,12.0,
172,Pittsylvania County Public Schools,Chatham,36.656235,-79.302841,Kentuck Elementary School,PK-5,8.0,60%,586,5,11,,18.0,3.0,74.0,4.0,,14.0,
173,Poquoson City Public Schools,Poquoson,37.128479,-76.360687,Poquoson Elementary School,3-5,8.0,20%,482,4,20,2.0,1.0,2.0,93.0,2.0,,15.0,
174,Poquoson City Public Schools,Poquoson,37.129051,-76.364601,Poquoson Middle School,6-8,8.0,18%,523,4,10,2.0,1.0,2.0,90.0,3.0,1.0,14.0,1.0
175,Prince George County Public Schools,Prince George,37.128296,-77.312378,South Elementary School,PK-5,8.0,42%,455,5,10,,20.0,9.0,61.0,7.0,,13.0,1.0
176,Prince George County Public Schools,Prince George,37.201412,-77.329437,William A. Walton Elementary School,PK-5,8.0,47%,636,4,78,1.0,37.0,12.0,40.0,8.0,,15.0,1.0
177,Prince William County Public Schools,Manassas,38.681366,-77.420265,Thurgood Marshall Elementary School,PK-5,8.0,13%,652,4,46,8.0,8.0,14.0,61.0,8.0,,18.0,1.0
178,Prince William County Public Schools,Manassas,38.837048,-77.628128,Mountain View Elementary School,PK-5,8.0,6%,587,5,97,10.0,7.0,10.0,65.0,7.0,1.0,17.0,
179,Prince William County Public Schools,Manassas,38.682487,-77.305252,Old Bridge Elementary School,PK-5,8.0,38%,740,5,33,11.0,14.0,30.0,38.0,7.0,,16.0,
180,Prince William County Public Schools,Manassas,38.737282,-77.581276,E.H. Marsteller Middle School,6-8,8.0,14%,1348,3,51,11.0,12.0,16.0,54.0,6.0,,18.0,
181,Prince William County Public Schools,Manassas,38.785286,-77.478989,Loch Lomond Elementary School,PK-5,8.0,80%,563,4,31,3.0,6.0,77.0,12.0,2.0,,12.0,
182,Prince William County Public Schools,Manassas,38.671787,-77.259491,Occoquan Elementary School,PK-5,8.0,65%,632,5,28,7.0,20.0,53.0,15.0,4.0,1.0,13.0,
183,Prince William County Public Schools,Manassas,38.726089,-77.580063,Patriot High School,9-12,8.0,12%,2726,3,98,12.0,11.0,16.0,54.0,7.0,,19.0,
184,Prince William County Public Schools,Manassas,38.761852,-77.589272,Bristow Run Elementary School,PK-5,8.0,15%,699,5,15,10.0,11.0,16.0,53.0,9.0,,16.0,
185,Pulaski County Public Schools,Pulaski,37.023064,-80.592484,Snowville Elementary School,PK-5,8.0,54%,155,5,3,,,1.0,97.0,2.0,,9.0,
186,Roanoke County Public Schools,Roanoke,37.213402,-80.016403,Cave Spring Elementary School,PK-5,8.0,18%,481,4,12,6.0,6.0,8.0,77.0,3.0,,18.0,
187,Roanoke County Public Schools,Roanoke,37.213402,-80.000702,Cave Spring High School,9-12,8.0,17%,1014,4,20,4.0,5.0,4.0,81.0,5.0,,22.0,
188,Roanoke County Public Schools,Roanoke,37.231602,-79.988602,Green Valley Elementary School,PK-5,8.0,35%,520,5,9,7.0,7.0,8.0,71.0,7.0,,18.0,
189,Roanoke County Public Schools,Roanoke,37.255501,-80.029602,Hidden Valley Middle School,6-8,8.0,23%,612,3,37,6.0,6.0,6.0,76.0,6.0,,15.0,
190,Rockbridge County Public Schools,Lexington,37.620296,-79.499268,Natural Bridge Elementary School,PK-5,8.0,63%,277,2,8,,5.0,5.0,83.0,8.0,,11.0,
191,Rockingham County Public Schools,Harrisonburg,38.605595,-78.794746,Broadway High School,9-12,8.0,34%,1020,5,3,1.0,1.0,9.0,87.0,2.0,,16.0,
192,Russell County Public Schools,Lebanon,37.040436,-81.921997,Swords Creek Elementary School,3-7,8.0,68%,142,0,0,,1.0,1.0,98.0,,,12.0,
193,Scott County Public Schools,Gate City,36.709583,-82.803093,Duffield-Pattonsville Primary School,PK-4,8.0,75%,293,3,7,,,1.0,97.0,2.0,,16.0,
194,Scott County Public Schools,Gate City,36.732128,-82.691681,Rye Cove Intermediate School,5-7,8.0,58%,165,0,0,,1.0,2.0,96.0,1.0,,15.0,
195,Scott County Public Schools,Gate City,36.641109,-82.57637,Shoemaker Elementary School,PK-6,8.0,85%,565,5,9,,1.0,2.0,95.0,2.0,,16.0,
196,Scott County Public Schools,Gate City,36.779789,-82.463341,Twin Springs High School,8-12,8.0,67%,236,4,11,1.0,,3.0,94.0,1.0,,13.0,
197,Smyth County Public Schools,Marion,36.93,-81.626549,Northwood Middle School,6-8,8.0,64%,177,4,9,1.0,2.0,1.0,95.0,1.0,,11.0,
198,Smyth County Public Schools,Marion,36.926384,-81.625511,Rich Valley Elementary School,PK-5,8.0,58%,159,5,2,,,4.0,96.0,,,11.0,
199,Southampton County Public Schools,Courtland,36.845089,-76.984497,Nottoway Elementary School,PK-5,8.0,43%,315,4,3,,18.0,2.0,77.0,2.0,,18.0,1.0
200,Spotsylvania County Public Schools,Fredericksburg,38.293404,-77.582268,Chancellor Elementary School,PK-5,8.0,21%,443,5,21,4.0,8.0,8.0,71.0,9.0,,17.0,
201,Suffolk City Public Schools,Suffolk,36.890911,-76.412842,Northern Shores Elementary School,PK-5,8.0,23%,895,5,19,3.0,39.0,9.0,40.0,8.0,,18.0,
202,Tazewell County Public Schools,Tazewell,37.093643,-81.784164,Richlands Elementary School,PK-5,8.0,85%,539,2,3,,,1.0,96.0,3.0,,19.0,
203,VA Beach City Public Schools,Virginia Beach,36.881439,-76.124657,Independence Middle School,6-8,8.0,41%,1231,3,28,4.0,21.0,12.0,54.0,8.0,,15.0,
204,VA Beach City Public Schools,Virginia Beach,36.8978,-76.061798,John B. Dey Elementary School,PK-5,8.0,18%,830,4,101,3.0,5.0,7.0,80.0,5.0,,17.0,
205,VA Beach City Public Schools,Virginia Beach,36.822285,-76.159637,Kempsville Elementary School,PK-5,8.0,36%,477,4,16,6.0,13.0,13.0,56.0,10.0,,11.0,2.0
206,VA Beach City Public Schools,Virginia Beach,36.857094,-76.136627,Pembroke Elementary School,PK-5,8.0,59%,532,5,4,8.0,20.0,14.0,48.0,10.0,,10.0,1.0
207,VA Beach City Public Schools,Virginia Beach,36.785954,-76.147308,Salem Middle School,6-8,8.0,39%,1037,3,16,12.0,27.0,13.0,34.0,14.0,,15.0,1.0
208,VA Beach City Public Schools,Virginia Beach,36.784595,-75.991608,Ocean Lakes Elementary School,PK-5,8.0,25%,536,4,44,2.0,12.0,11.0,62.0,12.0,,15.0,
209,VA Beach City Public Schools,Virginia Beach,36.773338,-76.139061,Glenwood Elementary School,PK-5,8.0,37%,1002,5,16,11.0,23.0,13.0,37.0,15.0,,14.0,1.0
210,Washington County Public Schools,Abingdon,36.71302,-82.016762,Abingdon Elementary School,PK-5,8.0,46%,484,5,4,1.0,2.0,2.0,92.0,3.0,,12.0,
211,Washington County Public Schools,Abingdon,36.653698,-81.793846,Holston High School,9-12,8.0,57%,301,5,2,,1.0,3.0,94.0,2.0,,11.0,
212,Washington County Public Schools,Abingdon,36.639656,-81.804008,Damascus Middle School,6-8,8.0,60%,204,0,0,,,3.0,93.0,4.0,,13.0,
213,Washington County Public Schools,Abingdon,36.683208,-81.817619,Rhea Valley Elementary School,PK-5,8.0,66%,425,5,2,,,1.0,97.0,1.0,,11.0,
214,West Point Public Schools,West Point,37.557777,-76.795052,West Point Elementary School,PK-5,8.0,39%,355,5,2,1.0,12.0,8.0,68.0,10.0,1.0,14.0,
215,Wise County Public Schools,Wise,36.955128,-82.598175,Central High School,9-12,8.0,46%,659,3,10,1.0,,1.0,98.0,1.0,,14.0,
216,Wythe County Public Schools,Wytheville,36.862606,-80.864731,Jackson Memorial Elementary School,PK-5,8.0,60%,218,5,7,,,,97.0,2.0,,17.0,
217,York County Public Schools,Yorktown,37.163513,-76.470062,Grafton High School,9-12,8.0,14%,1181,4,44,9.0,11.0,8.0,60.0,11.0,,16.0,
218,York County Public Schools,Yorktown,37.164089,-76.470695,Grafton Middle School,6-8,8.0,15%,902,4,23,9.0,11.0,8.0,59.0,13.0,,16.0,
219,York County Public Schools,Yorktown,37.162617,-76.458214,Dare Elementary School,PK-5,8.0,30%,417,4,23,3.0,6.0,13.0,68.0,8.0,1.0,15.0,
220,York County Public Schools,Yorktown,37.124508,-76.435234,Tabb High School,9-12,8.0,14%,1136,4,41,7.0,12.0,12.0,60.0,9.0,,16.0,
221,Henrico County Public Schools,Richmond,37.645851,-77.607452,Pocahontas Middle School,6-8,8.0,17%,979,3,30,10.0,8.0,6.0,73.0,3.0,,16.0,
222,Henrico County Public Schools,Richmond,37.667645,-77.544312,Echo Lake Elementary School,PK-5,8.0,22%,576,5,21,18.0,9.0,9.0,57.0,7.0,,16.0,
223,VA Beach City Public Schools,Virginia Beach,36.766228,-76.109703,New Castle Elementary School,PK-5,8.0,21%,785,5,37,11.0,16.0,9.0,51.0,13.0,,16.0,1.0
224,Henrico County Public Schools,Richmond,37.672398,-77.599121,Twin Hickory Elementary School,PK-5,8.0,8%,582,5,51,50.0,8.0,4.0,35.0,4.0,,19.0,
225,Prince William County Public Schools,Manassas,38.623062,-77.394165,Ashland Elementary School,PK-5,8.0,12%,796,4,85,5.0,18.0,16.0,52.0,8.0,,18.0,1.0
226,Stafford County Public Schools,Stafford,38.450764,-77.460785,Rodney E. Thompson Middle School,6-8,8.0,16%,912,3,33,4.0,18.0,14.0,55.0,7.0,,16.0,1.0
227,Loudoun County Public Schools,Broadlands,39.015224,-77.515541,Eagle Ridge Middle School,6-8,8.0,5%,1276,3,46,31.0,4.0,7.0,51.0,7.0,,16.0,
228,Hanover County Public Schools,Ashland,37.686192,-77.38385,Oak Knoll Middle School,6-8,8.0,14%,903,3,35,2.0,8.0,3.0,83.0,3.0,1.0,12.0,
229,Roanoke County Public Schools,Roanoke,37.223999,-80.024101,Hidden Valley High School,9-12,8.0,16%,830,4,22,7.0,5.0,4.0,79.0,6.0,,18.0,
230,Wythe County Public Schools,Wytheville,36.945972,-81.068985,Scott Memorial Middle School,6-8,8.0,47%,334,4,1,2.0,12.0,2.0,81.0,2.0,,17.0,
231,Henrico County Public Schools,Richmond,37.686993,-77.57869,Rivers Edge Elementary School,PK-5,8.0,5%,720,5,32,53.0,4.0,2.0,35.0,6.0,,18.0,
232,Newport News City Public Schools,Newport News,37.154037,-76.574104,General Stanford Elementary School,PK-5,8.0,33%,456,4,10,4.0,19.0,21.0,44.0,10.0,2.0,18.0,1.0
233,Loudoun County Public Schools,Broadlands,39.058468,-77.511772,Belmont Station Elementary School,PK-5,8.0,5%,713,5,33,21.0,6.0,10.0,55.0,7.0,,16.0,
234,Prince William County Public Schools,Manassas,38.798313,-77.636368,Buckland Mills Elementary School,PK-5,8.0,20%,655,4,45,19.0,11.0,15.0,48.0,7.0,,19.0,
235,Loudoun County Public Schools,Broadlands,38.980148,-77.525841,Legacy Elementary School,PK-5,8.0,2%,1043,5,38,36.0,4.0,6.0,49.0,5.0,,20.0,
236,VA Beach City Public Schools,Virginia Beach,36.75341,-76.01326,Three Oaks Elementary School,PK-5,8.0,15%,753,4,14,3.0,4.0,10.0,71.0,11.0,,15.0,
237,Prince William County Public Schools,Manassas,38.845329,-77.629921,Battlefield High School,9-12,8.0,10%,2964,3,89,11.0,9.0,13.0,59.0,8.0,,19.0,
238,Loudoun County Public Schools,Broadlands,38.914146,-77.535042,Freedom High School,9-12,8.0,7%,1921,4,48,29.0,6.0,9.0,50.0,5.0,,14.0,
239,Loudoun County Public Schools,Broadlands,39.037876,-77.577721,Sycolin Creek Elementary School,PK-5,8.0,2%,749,4,41,13.0,3.0,6.0,70.0,7.0,,15.0,
240,Prince William County Public Schools,Manassas,38.782959,-77.59758,Gainesville Middle School,6-8,8.0,15%,1440,4,47,14.0,13.0,17.0,49.0,7.0,,17.0,
241,Chesterfield County Public Schools,Chesterfield,37.379555,-77.712029,Winterpock Elementary School,PK-5,8.0,6%,1047,5,15,4.0,9.0,7.0,72.0,6.0,,19.0,
242,Loudoun County Public Schools,Broadlands,39.158783,-77.730484,Woodgrove High School,PK-12,8.0,6%,1637,3,60,3.0,3.0,7.0,83.0,3.0,,14.0,
243,Prince William County Public Schools,Manassas,38.725502,-77.578407,T. Clay Wood Elementary School,PK-5,8.0,10%,903,5,26,9.0,12.0,15.0,57.0,6.0,,18.0,
244,Loudoun County Public Schools,Broadlands,38.896698,-77.523026,J Michael Lunsford Middle School,6-8,8.0,8%,1650,5,18,35.0,5.0,8.0,47.0,4.0,,16.0,
245,Loudoun County Public Schools,Broadlands,38.932343,-77.565704,John Champe High School,9-12,8.0,10%,2047,4,66,32.0,10.0,10.0,41.0,6.0,,14.0,
246,Loudoun County Public Schools,Broadlands,38.999317,-77.505394,Moorefield Station Elementary School,PK-5,7.0,8%,902,4,80,46.0,7.0,8.0,33.0,5.0,,18.0,1.0
247,Sussex County Public Schools,Stony Creek,36.922215,-77.250618,Sussex Central Elementary School,PK-5,7.0,80%,527,0,0,,76.0,4.0,19.0,1.0,,11.0,
248,Loudoun County Public Schools,Broadlands,39.055412,-77.502571,Trailside Middle School,6-8,7.0,10%,1222,3,90,18.0,6.0,11.0,59.0,5.0,,14.0,
249,Loudoun County Public Schools,Broadlands,38.977871,-77.500015,ROCK RIDGE HIGH SCHOOL,PK-12,7.0,11%,1948,4,58,35.0,10.0,10.0,38.0,6.0,,13.0,
250,Prince William County Public Schools,Manassas,38.806549,-77.651482,Haymarket Elementary School,K-5,7.0,13%,845,5,14,13.0,12.0,14.0,54.0,7.0,,17.0,
251,VA Beach City Public Schools,Virginia Beach,36.857719,-76.139275,Bayside 6th Grade Campus,K-1,7.0,69%,440,0,0,3.0,58.0,14.0,16.0,10.0,,11.0,
252,Accomack County Public Schools,Accomac,37.937782,-75.356628,Chincoteague Elementary School,PK-5,7.0,43%,236,4,4,1.0,17.0,1.0,79.0,2.0,,13.0,
253,Accomack County Public Schools,Accomac,37.939186,-75.358994,Chincoteague High School,6-12,7.0,36%,286,5,3,,14.0,3.0,82.0,,,11.0,
254,Albemarle County Public Schools,Charlottesville,38.050533,-78.707771,Western Albemarle High School,9-12,7.0,11%,1139,3,20,3.0,2.0,4.0,88.0,3.0,,12.0,
255,Alexandria City Public Schools,Alexandria,38.799438,-77.046638,Lyles-Crouch Elementary,PK-5,7.0,22%,437,3,51,3.0,29.0,8.0,53.0,7.0,,13.0,
256,Amherst County Public Schools,Amherst,37.5695,-79.032043,Amherst Middle School,6-8,7.0,45%,358,5,1,,11.0,3.0,77.0,9.0,1.0,14.0,
257,Amherst County Public Schools,Amherst,37.693066,-79.081779,Temperance Elementary School,PK-5,7.0,52%,113,5,1,,14.0,2.0,82.0,2.0,,15.0,
258,Arlington County Public Schools,Arlington,38.878605,-77.146606,McKinley Elementary School,PK-5,7.0,8%,800,4,35,5.0,4.0,11.0,70.0,11.0,,13.0,
259,Augusta County Public Schools,Verona,38.032784,-79.139961,Riverheads High School,9-12,7.0,28%,460,5,4,1.0,2.0,1.0,93.0,2.0,,12.0,
260,Augusta County Public Schools,Verona,38.051521,-79.014954,Stuarts Draft High School,9-12,7.0,31%,722,3,11,1.0,2.0,4.0,89.0,3.0,,12.0,
261,Bedford County Public Schools,Bedford,37.531326,-79.416122,Big Island Elementary School,PK-5,7.0,47%,137,4,1,,5.0,,86.0,9.0,,17.0,
262,Bedford County Public Schools,Bedford,37.30695,-79.306778,New London Academy Elementary,PK-5,7.0,28%,319,5,2,4.0,5.0,3.0,80.0,6.0,,11.0,1.0
263,Bedford County Public Schools,Bedford,37.37558,-79.307953,Forest Elementary School,K-5,7.0,13%,359,5,15,6.0,6.0,5.0,79.0,4.0,,19.0,
264,Bedford County Public Schools,Bedford,37.37775,-79.304489,Jefferson Forest High School,9-12,7.0,13%,1387,4,29,4.0,6.0,3.0,84.0,3.0,,19.0,
265,Bland County Public Schools,Bastian,37.103199,-81.114098,Bland High School,7-12,7.0,44%,383,0,0,,,1.0,97.0,2.0,,9.0,
266,Bland County Public Schools,Bastian,37.103214,-81.11409,Bland Elementary School,PK-6,7.0,53%,347,0,0,,,1.0,96.0,2.0,,18.0,
267,Botetourt County Public Schools,Fincastle,37.546764,-79.725792,James River High School,9-12,7.0,26%,548,5,3,1.0,2.0,1.0,94.0,2.0,,14.0,
268,Bristol City Public Schools,Bristol,36.597466,-82.207237,Stonewall Jackson Elementary School,PK-5,7.0,98%,261,0,0,,6.0,4.0,79.0,10.0,,15.0,
269,Campbell County Public Schools,Rustburg,37.344326,-79.23761,Tomahawk Elementary School,PK-5,7.0,41%,683,2,16,3.0,9.0,5.0,74.0,8.0,,16.0,
270,Carroll County Public Schools,Hillsville,36.78756,-80.694687,Hillsville Elementary School,PK-5,7.0,65%,515,4,2,,,7.0,92.0,1.0,,13.0,
271,Chesapeake Public Schools,Chesapeake,36.763168,-76.282784,Crestwood Middle School,6-8,7.0,49%,573,3,4,3.0,50.0,10.0,28.0,8.0,,13.0,
272,Chesapeake Public Schools,Chesapeake,36.7561,-76.347542,Deep Creek Elementary School,PK-5,7.0,38%,736,4,57,1.0,17.0,14.0,60.0,8.0,,17.0,
273,Chesapeake Public Schools,Chesapeake,36.801914,-76.244926,Georgetown Primary School,PK-3,7.0,61%,805,4,51,2.0,54.0,10.0,25.0,9.0,,15.0,
274,Chesapeake Public Schools,Chesapeake,36.652573,-76.214821,Hickory Middle School,6-8,7.0,11%,1591,4,25,2.0,6.0,6.0,79.0,7.0,,15.0,
275,Chesapeake Public Schools,Chesapeake,36.631271,-76.209946,Hickory Elementary School,PK-5,7.0,28%,461,5,48,,3.0,8.0,82.0,7.0,,17.0,
276,Chesapeake Public Schools,Chesapeake,36.848106,-76.407143,Western Branch High School,9-12,7.0,29%,2129,4,28,3.0,42.0,5.0,43.0,6.0,,16.0,
277,Chesapeake Public Schools,Chesapeake,36.690701,-76.239334,Great Bridge High School,9-12,7.0,19%,1449,4,19,3.0,20.0,7.0,64.0,6.0,,14.0,
278,Chesapeake Public Schools,Chesapeake,36.740078,-76.339043,Deep Creek Central Elementary School,PK-5,7.0,22%,710,4,42,1.0,25.0,13.0,50.0,11.0,,16.0,
279,Chesterfield County Public Schools,Chesterfield,37.495865,-77.653,J B Watkins Elementary School,PK-5,7.0,10%,1220,4,37,7.0,8.0,4.0,76.0,5.0,,18.0,
280,Chesterfield County Public Schools,Chesterfield,37.502319,-77.648964,Midlothian Middle School,6-8,7.0,8%,1325,3,70,5.0,8.0,4.0,79.0,4.0,,16.0,
281,Chesterfield County Public Schools,Chesterfield,37.531651,-77.613319,Robious Elementary School,PK-5,7.0,10%,652,4,46,4.0,6.0,5.0,80.0,6.0,,17.0,
282,Chesterfield County Public Schools,Chesterfield,37.39579,-77.642128,Alberta Smith Elementary School,PK-5,7.0,22%,625,4,20,1.0,12.0,11.0,69.0,7.0,,16.0,
283,Chesterfield County Public Schools,Chesterfield,37.477722,-77.616074,W W Gordon Elementary School,PK-5,7.0,12%,578,3,70,4.0,7.0,5.0,77.0,7.0,,18.0,
284,Chesterfield County Public Schools,Chesterfield,37.451473,-77.659157,Swift Creek Elementary School,PK-5,7.0,13%,872,4,33,6.0,10.0,6.0,71.0,6.0,,19.0,
285,Dickenson County Public Schools,Clintwood,37.180984,-82.275665,Sandlick Elementary School,PK-5,7.0,79%,438,5,2,,1.0,,97.0,1.0,,16.0,
286,Dinwiddie County Public Schools,Dinwiddie,37.129543,-77.534241,Southside Elementary School,PK-5,7.0,70%,513,5,15,,40.0,15.0,40.0,6.0,,13.0,
287,Dinwiddie County Public Schools,Dinwiddie,36.987076,-77.727524,Sunnyside Elementary School,K-5,7.0,64%,265,4,5,,22.0,4.0,69.0,5.0,,13.0,
288,Fairfax County Public Schools,Falls Church,38.880314,-77.406258,Chantilly High School,9-12,7.0,16%,2810,4,54,35.0,6.0,14.0,41.0,4.0,,13.0,
289,Fairfax County Public Schools,Falls Church,38.876415,-77.344734,Waples Mill Elementary School,PK-6,7.0,10%,919,4,43,23.0,3.0,9.0,57.0,8.0,,13.0,
290,Fairfax County Public Schools,Falls Church,38.848286,-77.225159,Camelot Elementary School,PK-6,7.0,35%,666,5,27,22.0,10.0,27.0,35.0,5.0,,11.0,
291,Fairfax County Public Schools,Falls Church,38.829205,-77.175789,Columbia Elementary School,PK-5,7.0,36%,503,5,42,17.0,16.0,28.0,33.0,6.0,,11.0,
292,Fairfax County Public Schools,Falls Church,38.869759,-77.247887,Fairhill Elementary School,PK-6,7.0,22%,583,5,58,26.0,7.0,23.0,35.0,8.0,,13.0,
293,Fairfax County Public Schools,Falls Church,38.904064,-77.225281,Kilmer Middle School,7-8,7.0,15%,1201,4,72,24.0,5.0,15.0,48.0,7.0,,15.0,
294,Fairfax County Public Schools,Falls Church,38.905144,-77.212875,Marshall High School,9-12,7.0,17%,2270,4,111,19.0,5.0,20.0,50.0,6.0,,14.0,
295,Fairfax County Public Schools,Falls Church,38.923382,-77.185143,Mclean High School,9-12,7.0,8%,2185,4,67,22.0,3.0,12.0,57.0,5.0,,16.0,
296,Fairfax County Public Schools,Falls Church,38.818832,-77.309891,Oak View Elementary School,PK-6,7.0,5%,837,5,42,13.0,3.0,9.0,65.0,8.0,,14.0,
297,Fairfax County Public Schools,Falls Church,38.877579,-77.282509,Oakton High School,9-12,7.0,12%,2652,3,43,29.0,5.0,11.0,49.0,5.0,,16.0,
298,Fairfax County Public Schools,Falls Church,38.803185,-77.223167,Ravensworth Elementary School,PK-6,7.0,15%,558,4,69,15.0,5.0,27.0,46.0,7.0,1.0,13.0,
299,Fairfax County Public Schools,Falls Church,38.818592,-77.308662,Robinson Secondary,7-12,7.0,10%,3907,4,48,14.0,6.0,15.0,59.0,6.0,,15.0,
300,Fairfax County Public Schools,Falls Church,38.885593,-77.22876,Stenwood Elementary School,PK-6,7.0,10%,585,4,47,25.0,4.0,8.0,51.0,12.0,,13.0,
301,Fairfax County Public Schools,Falls Church,38.90023,-77.261765,Vienna Elementary School,PK-6,7.0,6%,487,5,22,15.0,2.0,9.0,67.0,7.0,,13.0,
302,Fairfax County Public Schools,Falls Church,38.836311,-77.24733,Wakefield Forest Elementary School,PK-6,7.0,10%,610,3,50,17.0,2.0,12.0,61.0,8.0,,14.0,
303,Fairfax County Public Schools,Falls Church,38.912926,-77.408485,Oak Hill Elementary School,PK-6,7.0,5%,862,4,32,42.0,3.0,7.0,42.0,6.0,,15.0,
304,Floyd County Public Schools,Floyd,36.916542,-80.539169,Indian Valley Elementary School,PK-7,7.0,46%,158,5,3,,,5.0,89.0,6.0,,13.0,
305,Franklin County Public Schools,Rocky Mount,37.090748,-79.929298,Boones Mill Elementary School,PK-5,7.0,45%,339,0,0,,1.0,7.0,87.0,6.0,,14.0,
306,Franklin County Public Schools,Rocky Mount,37.101555,-79.81601,Burnt Chimney Elementary School,PK-5,7.0,52%,299,1,1,,5.0,5.0,85.0,5.0,,10.0,
307,Gloucester County Public Schools,Gloucester,37.461166,-76.604103,Petsworth Elementary School,PK-5,7.0,42%,328,2,10,,5.0,5.0,81.0,8.0,1.0,16.0,1.0
308,Grayson County Public Schools,Independence,36.623821,-81.136955,Independence Elementary School,K-5,7.0,66%,222,0,0,,6.0,11.0,82.0,,,14.0,
309,Halifax County Public Schools,Halifax,36.830597,-78.871727,Clays Mill Elementary School,PK-5,7.0,88%,154,0,0,,29.0,5.0,64.0,1.0,,10.0,
310,Hampton City Public Schools,Hampton,37.049412,-76.385864,Thomas Eaton Middle School,6-8,7.0,51%,607,3,6,2.0,67.0,4.0,20.0,7.0,1.0,12.0,
311,Hampton City Public Schools,Hampton,37.03521,-76.439041,Tucker-Capps Elementary School,PK-5,7.0,33%,335,4,18,1.0,53.0,5.0,30.0,11.0,,12.0,
312,Hanover County Public Schools,Ashland,37.617859,-77.340889,Stonewall Jackson Middle School,6-8,7.0,24%,1078,3,6,2.0,9.0,4.0,80.0,4.0,,14.0,
313,Hanover County Public Schools,Ashland,37.666164,-77.411812,Chickahominy Middle School,6-8,7.0,12%,1237,4,26,2.0,8.0,3.0,83.0,4.0,,14.0,
314,Henrico County Public Schools,Richmond,37.593719,-77.582649,Maybeury Elementary School,PK-5,7.0,37%,680,4,51,4.0,20.0,9.0,62.0,5.0,,16.0,
315,Henrico County Public Schools,Richmond,37.641464,-77.546982,Longan Elementary School,PK-5,7.0,57%,468,5,32,15.0,19.0,19.0,38.0,9.0,,14.0,
316,Henrico County Public Schools,Richmond,37.602528,-77.538788,Three Chopt Elementary School,PK-5,7.0,43%,350,4,21,11.0,12.0,22.0,48.0,7.0,,15.0,1.0
317,Henrico County Public Schools,Richmond,37.638161,-77.492111,Trevvett Elementary School,PK-5,7.0,59%,516,4,36,6.0,38.0,14.0,34.0,8.0,,15.0,
318,Henrico County Public Schools,Richmond,37.657532,-77.565857,Springfield Park Elementary School,PK-5,7.0,24%,656,5,38,19.0,12.0,12.0,52.0,5.0,,18.0,
319,Henrico County Public Schools,Richmond,37.619926,-77.604744,Godwin High School,9-12,7.0,14%,1828,5,20,13.0,9.0,6.0,68.0,4.0,,18.0,
320,Highland County Public Schools,Monterey,38.407131,-79.578873,Highland High School,6-12,7.0,66%,103,5,1,,,2.0,97.0,1.0,,6.0,
321,Isle Of Wight County Public Schools,Smithfield,36.821701,-76.745911,Windsor Middle School,6-8,7.0,38%,411,3,2,1.0,18.0,3.0,73.0,5.0,,11.0,
322,King Geo County Public Schools,King George,38.277489,-77.202354,King George Middle School,7-8,7.0,32%,733,2,25,1.0,16.0,7.0,69.0,6.0,,13.0,
323,Lexington City Public Schools,Lexington,37.78643,-79.435509,Harrington Waddell Elementary School,PK-5,7.0,28%,313,5,8,4.0,9.0,8.0,76.0,3.0,,10.0,
324,Loudoun County Public Schools,Broadlands,39.022755,-77.490448,Broad Run High School,9-12,7.0,15%,1554,5,23,21.0,9.0,14.0,50.0,5.0,,15.0,
325,Loudoun County Public Schools,Broadlands,39.140255,-77.702423,Loudoun Valley High School,9-12,7.0,9%,1367,4,46,4.0,3.0,9.0,79.0,5.0,,15.0,
326,Loudoun County Public Schools,Broadlands,39.056568,-77.409859,Algonkian Elementary School,PK-5,7.0,12%,481,4,44,7.0,5.0,17.0,63.0,7.0,,14.0,1.0
327,Lynchburg City Public Schools,Lynchburg,37.451309,-79.207695,Paul Munro Elementary School,PK-5,7.0,91%,333,5,25,2.0,32.0,6.0,55.0,5.0,,14.0,
328,Mecklenburg County Public Schools,Boydton,36.601723,-78.563263,Clarksville Elementary School,PK-5,7.0,61%,449,0,0,,39.0,4.0,50.0,6.0,,13.0,
329,Mecklenburg County Public Schools,Boydton,36.719673,-78.159737,South Hill Elementary School,PK-5,7.0,67%,725,4,7,1.0,46.0,5.0,43.0,6.0,,15.0,
330,Montgomery County Public Schools,Christiansburg,37.059841,-80.443604,Auburn High School,9-12,7.0,32%,428,0,0,,1.0,4.0,94.0,1.0,,11.0,
331,Montgomery County Public Schools,Christiansburg,37.209129,-80.461143,Blacksburg High School,9-12,7.0,14%,1211,5,37,7.0,4.0,4.0,79.0,5.0,,13.0,
332,New Kent County Public Schools,New Kent,37.529163,-77.098907,George W. Watkins Elementary School,PK-5,7.0,25%,709,4,14,1.0,6.0,4.0,84.0,5.0,1.0,13.0,
333,Newport News City Public Schools,Newport News,36.994919,-76.410072,B.T. Washington Middle School,6-8,7.0,40%,439,3,15,2.0,45.0,10.0,36.0,6.0,,17.0,
334,Newport News City Public Schools,Newport News,37.028584,-76.464035,Hilton Elementary School,PK-5,7.0,34%,394,5,44,2.0,19.0,10.0,63.0,7.0,,18.0,
335,Norfolk City Public Schools,Norfolk,36.89019,-76.300507,Larchmont Elementary School,PK-5,7.0,23%,541,3,49,8.0,18.0,7.0,60.0,8.0,,18.0,
336,Norfolk City Public Schools,Norfolk,36.912037,-76.221634,Larrymore Elementary School,PK-5,7.0,99%,588,5,11,3.0,53.0,14.0,24.0,6.0,,18.0,
337,Norfolk City Public Schools,Norfolk,36.922691,-76.313927,Sewells Point Elementary School,PK-5,7.0,53%,601,5,37,2.0,35.0,18.0,37.0,7.0,,16.0,
338,Norfolk City Public Schools,Norfolk,36.925911,-76.221283,Tarrallton Elementary School,PK-5,7.0,54%,368,4,56,1.0,19.0,11.0,54.0,13.0,1.0,15.0,1.0
339,Northumberland County Public Schools,Lottsburg,37.906837,-76.440422,Northumberland Elementary School,PK-5,7.0,61%,598,4,4,1.0,43.0,7.0,44.0,5.0,,15.0,
340,Norton City Public Schools,Norton,36.940575,-82.620934,Norton Elementary School,PK-7,7.0,92%,492,1,2,1.0,5.0,1.0,87.0,5.0,,13.0,
341,Nottoway County Public Schools,Crewe,37.166164,-78.108078,Crewe Primary School,1-4,7.0,72%,394,5,1,,38.0,12.0,43.0,5.0,1.0,13.0,
342,Pittsylvania County Public Schools,Chatham,36.66774,-79.526337,Tunstall Middle School,6-8,7.0,52%,668,3,9,1.0,13.0,7.0,76.0,2.0,,14.0,
343,Pittsylvania County Public Schools,Chatham,36.761936,-79.387573,Chatham Middle School,6-8,7.0,56%,444,4,3,,27.0,7.0,64.0,2.0,,11.0,
344,Poquoson City Public Schools,Poquoson,37.129002,-76.379784,Poquoson High School,9-12,7.0,14%,698,3,18,3.0,1.0,4.0,89.0,2.0,,15.0,1.0
345,Prince George County Public Schools,Prince George,37.134651,-77.228394,David A. Harrison Elementary School,PK-5,7.0,50%,552,3,27,1.0,23.0,23.0,45.0,8.0,,14.0,1.0
346,Prince William County Public Schools,Manassas,38.658821,-77.428909,Coles Elementary School,PK-5,7.0,36%,424,4,39,2.0,7.0,35.0,50.0,6.0,,16.0,
347,Prince William County Public Schools,Manassas,38.605553,-77.348648,John F. Pattie Sr. Elementary School,PK-5,7.0,23%,707,4,40,5.0,32.0,24.0,31.0,9.0,,17.0,
348,Prince William County Public Schools,Manassas,38.687332,-77.570374,Nokesville Elementary School,PK-8,7.0,18%,987,5,14,2.0,5.0,18.0,71.0,4.0,,17.0,
349,Prince William County Public Schools,Manassas,38.657684,-77.395035,Herbert J. Saunders Middle School,6-8,7.0,30%,1174,4,71,8.0,25.0,30.0,29.0,7.0,1.0,17.0,
350,Prince William County Public Schools,Manassas,38.686405,-77.304977,Lake Ridge Middle School,6-8,7.0,35%,1277,4,35,9.0,24.0,27.0,32.0,8.0,,17.0,
351,Richmond City Public Schools,Richmond,37.528564,-77.403671,Franklin Military Academy,6-12,7.0,98%,367,4,6,,94.0,4.0,1.0,1.0,,11.0,
352,Roanoke County Public Schools,Roanoke,37.215786,-80.018188,Cave Spring Middle School,6-8,7.0,19%,764,4,15,5.0,5.0,4.0,83.0,4.0,,20.0,
353,Roanoke County Public Schools,Roanoke,37.20351,-79.951462,Clearbrook Elementary School,PK-5,7.0,32%,352,4,12,5.0,8.0,4.0,74.0,9.0,,13.0,
354,Roanoke County Public Schools,Roanoke,37.3204,-80.020103,Glen Cove Elementary School,PK-5,7.0,30%,454,4,9,4.0,14.0,7.0,68.0,7.0,,18.0,
355,Roanoke County Public Schools,Roanoke,37.280201,-80.139198,Glenvar High School,9-12,7.0,23%,575,4,11,1.0,2.0,3.0,91.0,2.0,1.0,17.0,
356,Roanoke County Public Schools,Roanoke,37.274502,-79.878998,W.E. Cundiff Elementary School,PK-5,7.0,43%,485,4,32,2.0,7.0,4.0,85.0,3.0,,15.0,
357,Roanoke County Public Schools,Roanoke,37.203602,-79.999298,Penn Forest Elementary School,PK-5,7.0,18%,460,5,11,8.0,4.0,4.0,82.0,2.0,,18.0,
358,Rockingham County Public Schools,Harrisonburg,38.279537,-78.821243,South River Elementary School,PK-5,7.0,46%,341,3,10,,2.0,11.0,84.0,2.0,1.0,13.0,
359,Rockingham County Public Schools,Harrisonburg,38.404312,-78.608841,Elkton Middle School,6-8,7.0,39%,466,3,6,1.0,4.0,8.0,82.0,5.0,,13.0,
360,Russell County Public Schools,Lebanon,36.89983,-82.084023,Lebanon Elementary School,2-4,7.0,57%,353,5,7,,1.0,1.0,97.0,1.0,,19.0,
361,Scott County Public Schools,Gate City,36.750244,-82.422539,Nickelsville Elementary School,PK-7,7.0,57%,247,5,2,,1.0,7.0,89.0,3.0,,15.0,
362,Scott County Public Schools,Gate City,36.639206,-82.569557,Gate City Middle School,7-9,7.0,51%,487,5,1,,,1.0,97.0,1.0,,19.0,
363,Smyth County Public Schools,Marion,36.867924,-81.419182,Atkins Elementary School,PK-5,7.0,79%,212,5,2,,,5.0,92.0,1.0,,13.0,
364,Smyth County Public Schools,Marion,36.80447,-81.672798,Chilhowie High School,9-12,7.0,60%,402,5,7,,1.0,5.0,93.0,,,14.0,
365,Smyth County Public Schools,Marion,36.888149,-81.754311,Saltville Elementary School,PK-5,7.0,91%,210,4,1,,,2.0,97.0,,,12.0,
366,Spotsylvania County Public Schools,Fredericksburg,38.251881,-77.580818,Smith Station Elementary School,PK-5,7.0,38%,677,3,35,3.0,24.0,18.0,47.0,8.0,,18.0,
367,Spotsylvania County Public Schools,Fredericksburg,38.15506,-77.514511,Riverview Elementary School,PK-5,7.0,50%,634,3,22,1.0,16.0,13.0,61.0,8.0,,19.0,
368,Stafford County Public Schools,Stafford,38.474041,-77.480774,Andrew G. Wright Middle School,6-8,7.0,45%,900,5,29,2.0,14.0,20.0,57.0,6.0,,14.0,1.0
369,Suffolk City Public Schools,Suffolk,36.842609,-76.504036,John Yeates Middle School,6-8,7.0,27%,1241,4,17,2.0,49.0,7.0,35.0,6.0,,14.0,
370,Suffolk City Public Schools,Suffolk,36.84869,-76.590935,Oakland Elementary School,PK-5,7.0,46%,478,4,22,1.0,46.0,8.0,39.0,6.0,,16.0,
371,Surry County Public Schools,Surry,37.084221,-76.904228,Luther P. Jackson Middle School,5-8,7.0,62%,222,3,4,,59.0,2.0,33.0,5.0,,8.0,
372,Tazewell County Public Schools,Tazewell,37.235737,-81.26165,Graham Middle School,6-8,7.0,49%,416,0,0,2.0,5.0,1.0,89.0,3.0,,16.0,
373,Tazewell County Public Schools,Tazewell,37.131603,-81.532837,North Tazewell Elementary School,PK-5,7.0,86%,256,0,0,,2.0,1.0,94.0,3.0,,20.0,
374,Tazewell County Public Schools,Tazewell,37.093403,-81.777252,Richlands High School,9-12,7.0,58%,692,5,3,1.0,,,97.0,2.0,,15.0,
375,Tazewell County Public Schools,Tazewell,37.095516,-81.779404,Richlands Middle School,6-8,7.0,58%,561,5,2,,1.0,,96.0,2.0,,17.0,
376,Tazewell County Public Schools,Tazewell,37.125912,-81.508492,Tazewell Elementary School,PK-5,7.0,62%,477,4,3,1.0,7.0,1.0,87.0,3.0,,16.0,
377,Tazewell County Public Schools,Tazewell,37.125,-81.505196,Tazewell High School,9-12,7.0,61%,530,4,5,1.0,3.0,1.0,94.0,2.0,,15.0,
378,Tazewell County Public Schools,Tazewell,37.128494,-81.485664,Tazewell Middle School,6-8,7.0,60%,409,3,3,1.0,2.0,1.0,92.0,4.0,,15.0,
379,VA Beach City Public Schools,Virginia Beach,36.844444,-76.127274,Princess Anne High School,9-12,7.0,29%,1799,5,8,9.0,17.0,8.0,58.0,7.0,,14.0,1.0
380,VA Beach City Public Schools,Virginia Beach,36.776913,-76.10453,Landstown Middle School,6-8,7.0,34%,1440,3,30,9.0,29.0,11.0,39.0,11.0,,15.0,1.0
381,VA Beach City Public Schools,Virginia Beach,36.787624,-76.007431,Corporate Landing Elementary School,PK-5,7.0,54%,450,5,19,4.0,19.0,11.0,52.0,14.0,,13.0,
382,VA Beach City Public Schools,Virginia Beach,36.771488,-75.981529,Ocean Lakes High School,9-12,7.0,28%,2111,5,17,8.0,14.0,10.0,60.0,8.0,,15.0,1.0
383,VA Beach City Public Schools,Virginia Beach,36.787498,-76.011719,Corporate Landing Middle School,6-8,7.0,47%,1229,4,27,5.0,20.0,14.0,51.0,10.0,,13.0,
384,VA Beach City Public Schools,Virginia Beach,36.767593,-76.066292,Christopher Farms Elementary School,PK-5,7.0,24%,708,4,27,4.0,11.0,16.0,57.0,11.0,1.0,15.0,1.0
385,VA Beach City Public Schools,Virginia Beach,36.882576,-76.031662,Alanton Elementary School,PK-5,7.0,38%,610,4,37,4.0,17.0,13.0,54.0,11.0,,17.0,1.0
386,VA Beach City Public Schools,Virginia Beach,36.83147,-76.186607,Arrowhead Elementary School,PK-5,7.0,49%,510,4,22,4.0,24.0,12.0,50.0,9.0,1.0,14.0,
387,VA Beach City Public Schools,Virginia Beach,36.819916,-76.077538,Brookwood Elementary School,PK-5,7.0,58%,653,5,16,4.0,21.0,17.0,46.0,12.0,,14.0,
388,VA Beach City Public Schools,Virginia Beach,36.637108,-76.037613,Creeds Elementary School,PK-5,7.0,23%,311,4,9,,4.0,3.0,92.0,2.0,,13.0,
389,VA Beach City Public Schools,Virginia Beach,36.745415,-76.060425,Floyd Kellam High School,9-12,7.0,9%,2002,4,26,3.0,6.0,6.0,78.0,5.0,,16.0,
390,VA Beach City Public Schools,Virginia Beach,36.80035,-76.090622,Green Run Elementary School,PK-5,7.0,63%,385,3,16,10.0,39.0,18.0,19.0,13.0,1.0,12.0,1.0
391,VA Beach City Public Schools,Virginia Beach,36.896561,-76.139893,Hermitage Elementary School,PK-5,7.0,38%,671,2,52,3.0,15.0,12.0,58.0,10.0,,16.0,1.0
392,VA Beach City Public Schools,Virginia Beach,36.812744,-76.155327,Kempsville Middle School,6-8,7.0,30%,812,4,37,6.0,18.0,7.0,59.0,9.0,,14.0,
393,VA Beach City Public Schools,Virginia Beach,36.85944,-76.027763,Linkhorn Park Elementary School,PK-5,7.0,37%,608,5,22,2.0,12.0,17.0,58.0,11.0,,16.0,
394,VA Beach City Public Schools,Virginia Beach,36.846985,-76.098495,Malibu Elementary School,PK-5,7.0,44%,418,5,14,3.0,13.0,11.0,59.0,13.0,,15.0,
395,VA Beach City Public Schools,Virginia Beach,36.829556,-76.07737,Plaza Middle School,6-8,7.0,46%,1104,3,38,6.0,28.0,13.0,45.0,8.0,,13.0,1.0
396,VA Beach City Public Schools,Virginia Beach,36.751446,-76.033279,Princess Anne Elementary School,PK-5,7.0,9%,595,4,21,4.0,6.0,6.0,77.0,6.0,,14.0,
397,VA Beach City Public Schools,Virginia Beach,36.890186,-76.134621,Thoroughgood Elementary School,PK-5,7.0,17%,685,5,30,5.0,6.0,8.0,72.0,9.0,,16.0,1.0
398,VA Beach City Public Schools,Virginia Beach,36.865776,-76.050125,Trantwood Elementary School,PK-5,7.0,24%,548,5,21,4.0,8.0,7.0,74.0,6.0,,14.0,
399,VA Beach City Public Schools,Virginia Beach,36.822903,-76.103142,Windsor Oaks Elementary School,PK-5,7.0,58%,597,4,29,5.0,26.0,16.0,40.0,12.0,1.0,13.0,1.0
400,VA Beach City Public Schools,Virginia Beach,36.810413,-76.154869,Providence Elementary School,PK-5,7.0,38%,569,4,41,7.0,23.0,10.0,47.0,11.0,,14.0,1.0
401,VA Beach City Public Schools,Virginia Beach,36.768417,-76.189796,Centerville Elementary,PK-5,7.0,22%,730,4,33,17.0,18.0,8.0,46.0,10.0,,15.0,1.0
402,VA Beach City Public Schools,Virginia Beach,36.782715,-76.128693,Rosemont Forest Elementary School,PK-5,7.0,35%,502,5,34,7.0,17.0,16.0,43.0,16.0,,14.0,1.0
403,VA Beach City Public Schools,Virginia Beach,36.78315,-76.143478,Salem High School,9-12,7.0,35%,1753,4,55,10.0,31.0,10.0,38.0,10.0,1.0,15.0,1.0
404,Warren County Public Schools,Front Royal,38.920155,-78.168114,Hilda J. Barbour Elementary School,K-5,7.0,43%,502,3,6,1.0,4.0,8.0,79.0,6.0,1.0,15.0,
405,Washington County Public Schools,Abingdon,36.724434,-81.954239,E.B. Stanley Middle School,6-8,7.0,50%,650,2,21,2.0,2.0,3.0,88.0,4.0,,16.0,
406,Washington County Public Schools,Abingdon,36.777664,-81.77874,Glade Spring Middle School,6-8,7.0,60%,285,1,1,,1.0,5.0,92.0,1.0,,14.0,
407,Washington County Public Schools,Abingdon,36.751129,-81.858124,Meadowview Elementary School,PK-5,7.0,63%,617,2,7,,2.0,4.0,91.0,2.0,,14.0,
408,Washington County Public Schools,Abingdon,36.776344,-81.81501,Patrick Henry High School,9-12,7.0,48%,423,3,3,,1.0,3.0,93.0,2.0,,12.0,
409,Washington County Public Schools,Abingdon,36.631649,-82.271996,Valley Institute Elementary,PK-5,7.0,60%,310,5,15,,,1.0,97.0,2.0,,11.0,
410,Wise County Public Schools,Wise,36.945812,-82.468445,Eastside High School,9-12,7.0,45%,422,4,6,,2.0,1.0,96.0,1.0,,12.0,
411,Wise County Public Schools,Wise,36.951527,-82.467781,Coeburn Middle School,5-8,7.0,82%,357,3,3,,2.0,1.0,96.0,1.0,,12.0,
412,Wise County Public Schools,Wise,36.973511,-82.576988,Wise Primary School,PK-4,7.0,82%,675,4,9,1.0,2.0,2.0,94.0,1.0,,15.0,
413,Wise County Public Schools,Wise,36.884712,-82.73497,Powell Valley Middle School,5-8,7.0,84%,606,4,6,,4.0,1.0,92.0,2.0,,13.0,
414,Wythe County Public Schools,Wytheville,36.929813,-80.938919,Fort Chiswell High School,9-12,7.0,42%,498,3,14,,2.0,1.0,95.0,2.0,,14.0,
415,Wythe County Public Schools,Wytheville,36.972843,-80.951057,Max Meadows Elementary School,PK-5,7.0,53%,229,4,1,,,1.0,96.0,3.0,,21.0,
416,Wythe County Public Schools,Wytheville,36.815742,-81.175629,Speedwell Elementary School,PK-5,7.0,50%,139,0,0,,,1.0,95.0,4.0,,18.0,
417,York County Public Schools,Yorktown,37.148369,-76.453644,Grafton Bethel Elementary School,PK-5,7.0,21%,632,4,35,6.0,7.0,8.0,69.0,10.0,,16.0,
418,York County Public Schools,Yorktown,37.266979,-76.673912,Magruder Elementary School,PK-5,7.0,37%,592,4,21,2.0,23.0,14.0,49.0,11.0,,14.0,1.0
419,York County Public Schools,Yorktown,37.131424,-76.447701,Mount Vernon Elementary School,PK-5,7.0,11%,585,5,4,6.0,6.0,10.0,68.0,9.0,,16.0,
420,York County Public Schools,Yorktown,37.292439,-76.711983,Waller Mill Elementary School,K-5,7.0,18%,390,5,16,2.0,9.0,8.0,71.0,10.0,,14.0,
421,York County Public Schools,Yorktown,37.204044,-76.500465,York High School,9-12,7.0,19%,1115,4,19,6.0,11.0,7.0,68.0,8.0,,16.0,
422,Loudoun County Public Schools,Broadlands,39.092361,-77.489105,Riverside High School,9-12,7.0,9%,1593,5,35,18.0,9.0,11.0,56.0,6.0,,13.0,
423,Stafford County Public Schools,Stafford,38.434662,-77.45089,Colonial Forge High School,9-12,7.0,18%,2103,4,34,4.0,24.0,15.0,48.0,8.0,,16.0,
424,Bedford County Public Schools,Bedford,37.356647,-79.288361,Thomas Jefferson Elementary School,PK-5,7.0,22%,604,3,22,4.0,5.0,6.0,78.0,7.0,,14.0,
425,Loudoun County Public Schools,Broadlands,39.048836,-77.508736,Stone Bridge High School,9-12,7.0,9%,1669,5,24,13.0,7.0,11.0,63.0,6.0,,15.0,
426,Loudoun County Public Schools,Broadlands,38.899162,-77.499374,Little River Elementary School,PK-5,7.0,4%,796,4,65,28.0,4.0,7.0,56.0,5.0,1.0,16.0,
427,Williamsburg-James City Public Schools,Williamsburg,37.394238,-76.794197,Stonehouse Elementary School,K-5,7.0,25%,724,4,20,2.0,17.0,6.0,63.0,11.0,,18.0,1.0
428,Albemarle County Public Schools,Charlottesville,38.123783,-78.42247,Baker-Butler Elementary School,PK-5,7.0,27%,643,5,22,4.0,8.0,14.0,66.0,7.0,,12.0,
429,Fairfax County Public Schools,Falls Church,38.80542,-77.417572,Liberty Middle School,7-8,7.0,29%,1052,1,19,29.0,9.0,21.0,34.0,8.0,,13.0,
430,Wythe County Public Schools,Wytheville,36.930099,-80.938217,Fort Chiswell Middle School,6-8,7.0,50%,367,4,5,,1.0,2.0,96.0,1.0,,13.0,
431,Wythe County Public Schools,Wytheville,36.895218,-81.268936,Rural Retreat Middle School,6-8,7.0,47%,250,1,3,,1.0,2.0,97.0,,,14.0,
432,Hanover County Public Schools,Ashland,37.688381,-77.384758,Hanover High School,9-12,7.0,9%,1379,5,12,2.0,9.0,3.0,82.0,3.0,,12.0,
433,Loudoun County Public Schools,Broadlands,39.089405,-77.488518,Belmont Ridge Middle School,6-8,7.0,8%,1271,3,43,20.0,9.0,10.0,55.0,6.0,,15.0,
434,Fauquier County Public Schools,Warrenton,38.737572,-77.715698,Auburn Middle School,6-8,7.0,12%,544,5,9,2.0,3.0,8.0,83.0,3.0,,13.0,
435,Prince William County Public Schools,Manassas,38.769085,-77.616325,Glenkirk Elementary School,PK-5,7.0,6%,774,4,34,11.0,9.0,12.0,60.0,8.0,,18.0,
436,Hanover County Public Schools,Ashland,37.691147,-77.389259,Kersey Creek Elementary School,PK-5,7.0,11%,725,4,15,,11.0,3.0,81.0,5.0,,14.0,
437,Stafford County Public Schools,Stafford,38.459747,-77.494484,Margaret Brent Elementary School,PK-5,7.0,19%,905,4,40,2.0,10.0,12.0,65.0,10.0,,18.0,
438,Loudoun County Public Schools,Broadlands,39.056171,-77.502876,Newton-Lee Elementary School,PK-5,7.0,8%,755,4,128,34.0,5.0,7.0,47.0,6.0,,16.0,
439,Loudoun County Public Schools,Broadlands,38.9133,-77.555992,Pinebrook Elementary School,PK-5,7.0,10%,992,4,50,35.0,12.0,9.0,38.0,5.0,1.0,20.0,
440,Stafford County Public Schools,Stafford,38.458714,-77.49762,Mountain View High School,9-12,7.0,16%,1773,4,37,3.0,13.0,14.0,63.0,7.0,,16.0,1.0
441,Russell County Public Schools,Lebanon,36.900299,-82.083603,Lebanon Middle School,5-7,7.0,51%,367,5,9,,1.0,2.0,97.0,,,16.0,
442,Loudoun County Public Schools,Broadlands,38.925999,-77.547302,Mercer Middle School,6-8,7.0,8%,1878,4,86,37.0,9.0,9.0,39.0,6.0,,14.0,
443,Loudoun County Public Schools,Broadlands,38.977566,-77.502846,Rosa Lee Carter Elementary School,PK-5,7.0,8%,955,4,83,61.0,6.0,6.0,20.0,5.0,1.0,16.0,
444,Williamsburg-James City Public Schools,Williamsburg,37.275997,-76.81739,Matoaka Elementary School,K-5,7.0,20%,754,5,18,4.0,10.0,11.0,69.0,6.0,,18.0,
445,Chesterfield County Public Schools,Chesterfield,37.337627,-77.341057,Elizabeth Scott Elementary School,PK-5,7.0,50%,1026,5,52,4.0,18.0,37.0,35.0,5.0,,15.0,1.0
446,Chesterfield County Public Schools,Chesterfield,37.46629,-77.670395,Tomahawk Creek Middle School,6-8,7.0,11%,1505,3,108,5.0,11.0,5.0,76.0,4.0,,17.0,
447,Loudoun County Public Schools,Broadlands,38.91288,-77.537415,Liberty Elementary School,PK-5,7.0,10%,1063,5,27,45.0,7.0,7.0,35.0,5.0,1.0,20.0,
448,Rockingham County Public Schools,Harrisonburg,38.399609,-78.654427,East Rockingham High School,9-12,7.0,36%,704,4,4,1.0,3.0,6.0,87.0,4.0,,14.0,
449,Hampton City Public Schools,Hampton,37.052517,-76.428688,George P Phenix Elementary School,PK-8,7.0,38%,1436,3,42,2.0,56.0,9.0,22.0,11.0,,14.0,
450,Grayson County Public Schools,Independence,36.651363,-81.407173,Grayson Highlands School,PK-7,7.0,68%,146,5,2,,,2.0,97.0,1.0,,12.0,
451,Henrico County Public Schools,Richmond,37.666233,-77.533691,Glen Allen High School,9-12,7.0,16%,1778,4,18,12.0,17.0,5.0,61.0,5.0,,18.0,
452,Prince William County Public Schools,Manassas,38.846329,-77.662086,Ronald Wilson Reagan Middle School,6-8,7.0,9%,1390,3,29,12.0,11.0,13.0,57.0,6.0,,19.0,
453,Fairfax County Public Schools,Falls Church,38.723953,-77.244072,South County Middle School,7-8,7.0,20%,1072,3,46,19.0,20.0,16.0,40.0,6.0,,15.0,
454,Loudoun County Public Schools,Broadlands,39.018959,-77.477913,Discovery Elementary,PK-5,6.0,17%,870,3,89,33.0,10.0,12.0,38.0,7.0,1.0,16.0,
455,Loudoun County Public Schools,Broadlands,38.895504,-77.516899,Cardinal Ridge Elementary,PK-5,6.0,9%,977,4,36,51.0,6.0,7.0,30.0,4.0,2.0,16.0,
456,Dickenson County Public Schools,Clintwood,37.133446,-82.389114,Ridgeview Middle School,6-8,6.0,65%,490,0,0,1.0,1.0,1.0,97.0,1.0,,12.0,
457,Prince William County Public Schools,Manassas,38.774448,-77.571091,Chris Yung Elementary,PK-5,6.0,40%,670,5,5,10.0,17.0,32.0,33.0,7.0,,,
458,Prince William County Public Schools,Manassas,38.653851,-77.440437,Charles J. Colgan Sr. High School,9-11,6.0,18%,1428,5,97,7.0,18.0,18.0,49.0,7.0,,,
459,Loudoun County Public Schools,Broadlands,38.97908,-77.551765,Brambleton Middle School,Ungraded,6.0,?,1119,5,14,31.0,6.0,6.0,49.0,7.0,,,
460,Warren County Public Schools,Front Royal,38.927559,-78.153191,New Warren County Middle School,Ungraded,6.0,?,593,0,0,2.0,2.0,8.0,82.0,5.0,1.0,,
461,Albemarle County Public Schools,Charlottesville,38.053005,-78.704277,Brownsville Elementary School,PK-5,6.0,12%,767,4,27,5.0,2.0,5.0,83.0,5.0,,14.0,
462,Albemarle County Public Schools,Charlottesville,38.112782,-78.439224,Hollymead Elementary School,PK-5,6.0,14%,468,4,7,17.0,4.0,7.0,64.0,7.0,1.0,13.0,
463,Albemarle County Public Schools,Charlottesville,38.05209,-78.705414,Joseph T Henley Middle School,6-8,6.0,11%,863,4,23,3.0,2.0,4.0,87.0,3.0,,14.0,
464,Alexandria City Public Schools,Alexandria,38.817543,-77.111374,Patrick Henry Elementary School,PK-5,6.0,76%,675,4,122,8.0,47.0,31.0,12.0,2.0,,10.0,
465,Amherst County Public Schools,Amherst,37.587917,-79.045555,Amherst Elementary School,PK-5,6.0,42%,291,0,0,,16.0,4.0,69.0,9.0,2.0,16.0,
466,Amherst County Public Schools,Amherst,37.513779,-79.195412,Elon Elementary School,PK-5,6.0,37%,315,5,2,1.0,8.0,6.0,79.0,5.0,1.0,14.0,
467,Appomattox County Public Schools,Appomattox,37.355721,-78.825157,Appomattox Middle School,6-8,6.0,46%,483,0,0,,20.0,2.0,70.0,8.0,,13.0,
468,Arlington County Public Schools,Arlington,38.872837,-77.136337,Ashlawn Elementary School,PK-5,6.0,18%,689,4,36,12.0,4.0,17.0,56.0,9.0,1.0,13.0,
469,Arlington County Public Schools,Arlington,38.875065,-77.089088,Long Branch Elementary School,PK-5,6.0,33%,635,5,28,11.0,11.0,24.0,44.0,9.0,,13.0,
470,Arlington County Public Schools,Arlington,38.883171,-77.138969,Swanson Middle School,6-8,6.0,12%,1305,5,26,8.0,4.0,15.0,66.0,7.0,,13.0,
471,Arlington County Public Schools,Arlington,38.902683,-77.140068,Yorktown High School,9-12,6.0,13%,2190,3,68,8.0,6.0,16.0,65.0,6.0,,15.0,
472,Augusta County Public Schools,Verona,38.194118,-79.218063,Buffalo Gap High School,9-12,6.0,35%,487,4,6,,1.0,1.0,97.0,1.0,,12.0,
473,Augusta County Public Schools,Verona,38.247246,-78.973244,Ft Defiance High School,9-12,6.0,31%,787,3,38,1.0,1.0,7.0,88.0,3.0,,13.0,
474,Augusta County Public Schools,Verona,38.051521,-79.014954,Stuarts Draft Middle School,6-8,6.0,42%,563,2,1,1.0,2.0,5.0,86.0,4.0,,12.0,1.0
475,Augusta County Public Schools,Verona,38.122402,-78.985695,Wilson Memorial High School,9-12,6.0,29%,762,2,25,1.0,4.0,5.0,85.0,4.0,,13.0,
476,Augusta County Public Schools,Verona,38.243874,-78.976624,S Gordon Stewart Middle School,6-8,6.0,38%,531,3,8,1.0,2.0,8.0,88.0,1.0,,13.0,
477,Bath County Public Schools,Warm Springs,38.033394,-79.795174,Bath County High School,8-12,6.0,39%,208,5,8,,3.0,1.0,90.0,5.0,,10.0,
478,Bedford County Public Schools,Bedford,37.452789,-79.260887,Boonsboro Elementary School,K-5,6.0,24%,303,3,24,2.0,9.0,6.0,76.0,7.0,,9.0,
479,Bedford County Public Schools,Bedford,37.163773,-79.47197,Huddleston Elementary School,PK-5,6.0,54%,285,0,0,,9.0,5.0,81.0,5.0,,10.0,
480,Bedford County Public Schools,Bedford,37.190929,-79.612274,Moneta Elementary School,PK-5,6.0,55%,243,5,14,2.0,9.0,1.0,82.0,6.0,,13.0,
481,Bedford County Public Schools,Bedford,37.364666,-79.43351,Otter River Elementary School,PK-5,6.0,31%,224,3,40,,8.0,4.0,83.0,4.0,,14.0,
482,Bedford County Public Schools,Bedford,37.271214,-79.790398,Stewartsville Elementary School,PK-5,6.0,68%,347,5,6,,2.0,6.0,90.0,2.0,,14.0,
483,Bedford County Public Schools,Bedford,37.369282,-79.310059,Forest Middle School,6-8,6.0,17%,947,4,16,3.0,6.0,4.0,82.0,4.0,,18.0,
484,Botetourt County Public Schools,Fincastle,37.441406,-79.847832,Troutville Elementary School,PK-5,6.0,34%,261,5,8,2.0,2.0,3.0,90.0,4.0,,11.0,
485,Botetourt County Public Schools,Fincastle,37.357876,-79.902901,Read Mountain Middle School,6-8,6.0,26%,722,4,3,1.0,3.0,6.0,86.0,4.0,,13.0,
486,Bristol City Public Schools,Bristol,36.606964,-82.16407,Highland View Elementary School,PK-5,6.0,98%,175,0,0,,16.0,1.0,74.0,9.0,,12.0,
487,Chesapeake Public Schools,Chesapeake,36.789715,-76.417114,Jolliff Middle School,6-8,6.0,32%,700,4,22,2.0,41.0,7.0,43.0,6.0,,14.0,
488,Campbell County Public Schools,Rustburg,37.345753,-79.235527,Brookville High School,9-12,6.0,27%,925,4,8,3.0,12.0,3.0,77.0,5.0,,14.0,
489,Campbell County Public Schools,Rustburg,37.345505,-79.239655,Brookville Middle School,6-8,6.0,38%,727,3,2,2.0,8.0,5.0,77.0,7.0,1.0,13.0,
490,Campbell County Public Schools,Rustburg,37.327702,-79.218666,Leesville Road Elementary School,PK-5,6.0,43%,661,4,14,2.0,10.0,12.0,69.0,7.0,1.0,15.0,
491,Carroll County Public Schools,Hillsville,36.687336,-80.60984,Gladesboro Elementary School,PK-5,6.0,62%,128,5,2,,,5.0,93.0,2.0,,10.0,
492,Carroll County Public Schools,Hillsville,36.699516,-80.878365,Gladeville Elementary School,PK-5,6.0,65%,299,4,1,,,11.0,85.0,3.0,,12.0,
493,Carroll County Public Schools,Hillsville,36.797153,-80.851768,Laurel Elementary School,PK-5,6.0,62%,224,5,7,,1.0,4.0,95.0,,,13.0,
494,Carroll County Public Schools,Hillsville,36.642673,-80.837669,Oakland Elementary School,PK-5,6.0,68%,194,5,10,,2.0,16.0,81.0,1.0,,11.0,
495,Carroll County Public Schools,Hillsville,36.768681,-80.739021,Woodlawn School,6-8,6.0,59%,821,1,1,,1.0,8.0,89.0,1.0,,13.0,
496,Charlotte County Public Schools,Charlotte Court House,37.052502,-78.645462,Central Middle School,6-8,6.0,58%,452,4,3,1.0,31.0,2.0,62.0,5.0,,14.0,
497,Charlottesville Cty Public Schools,Charlottesville,38.052357,-78.475906,Charlottesville High School,9-12,6.0,48%,1172,3,13,7.0,32.0,11.0,46.0,5.0,,13.0,
498,Chesapeake Public Schools,Chesapeake,36.778336,-76.348778,Camelot Elementary School,PK-5,6.0,72%,551,4,12,1.0,66.0,11.0,12.0,10.0,,15.0,1.0
499,Chesapeake Public Schools,Chesapeake,36.801182,-76.23587,Indian River Middle School,6-8,6.0,60%,765,4,23,1.0,55.0,10.0,28.0,6.0,1.0,11.0,
500,Chesapeake Public Schools,Chesapeake,36.815598,-76.253883,Thurgood Marshall Elementary School,PK-5,6.0,87%,552,3,9,,88.0,2.0,6.0,3.0,,12.0,
501,Chesapeake Public Schools,Chesapeake,36.8503,-76.403427,Western Branch Middle School,6-8,6.0,31%,874,3,55,5.0,38.0,5.0,43.0,8.0,,13.0,
502,Chesterfield County Public Schools,Chesterfield,37.491337,-77.546196,A M Davis Elementary School,PK-5,6.0,63%,701,5,41,4.0,35.0,27.0,27.0,7.0,,14.0,
503,Chesterfield County Public Schools,Chesterfield,37.425404,-77.46949,Beulah Elementary School,PK-5,6.0,63%,733,4,34,2.0,47.0,29.0,17.0,4.0,,12.0,
504,Chesterfield County Public Schools,Chesterfield,37.360973,-77.433655,C E Curtis Elementary School,PK-5,6.0,43%,696,4,32,2.0,28.0,7.0,57.0,6.0,,17.0,
505,Chesterfield County Public Schools,Chesterfield,37.448154,-77.64019,Clover Hill High School,9-12,6.0,20%,1877,4,27,6.0,22.0,9.0,56.0,6.0,,17.0,
506,Chesterfield County Public Schools,Chesterfield,37.388618,-77.766228,Grange Hall Elementary School,PK-5,6.0,13%,795,5,28,2.0,8.0,6.0,81.0,3.0,,18.0,
507,Chesterfield County Public Schools,Chesterfield,37.518784,-77.591805,Greenfield Elementary School,PK-5,6.0,27%,582,4,19,8.0,15.0,8.0,63.0,5.0,,16.0,
508,Chesterfield County Public Schools,Chesterfield,37.529686,-77.613327,Robious Middle School,6-8,6.0,24%,1327,3,64,5.0,11.0,10.0,69.0,5.0,,16.0,
509,Chesterfield County Public Schools,Chesterfield,37.439892,-77.645103,Swift Creek Middle School,6-8,6.0,20%,986,4,49,4.0,17.0,9.0,64.0,6.0,,15.0,
510,Chesterfield County Public Schools,Chesterfield,37.420574,-77.673897,Clover Hill Elementary School,PK-5,6.0,18%,758,4,52,4.0,14.0,6.0,70.0,7.0,,18.0,
511,Chesterfield County Public Schools,Chesterfield,37.434837,-77.553253,Jacobs Road Elementary School,PK-5,6.0,47%,761,3,81,3.0,32.0,16.0,42.0,6.0,,17.0,
512,Colonial Heights City Public Schools,Colonial Heights,37.281372,-77.369827,Tussing Elementary School,PK-5,6.0,52%,583,5,15,3.0,13.0,7.0,69.0,8.0,,13.0,
513,Dinwiddie County Public Schools,Dinwiddie,37.080807,-77.581909,Dinwiddie Elementary School,K-5,6.0,51%,346,5,5,1.0,29.0,1.0,64.0,6.0,,13.0,
514,Dinwiddie County Public Schools,Dinwiddie,37.188557,-77.543518,Sutherland Elementary School,K-5,6.0,59%,520,4,3,,47.0,6.0,39.0,8.0,,15.0,
515,Fairfax County Public Schools,Falls Church,38.85767,-77.454956,Stone Middle School,7-8,6.0,29%,768,4,33,13.0,8.0,29.0,45.0,4.0,,13.0,
516,Fairfax County Public Schools,Falls Church,38.859924,-77.286133,Fairfax High School,9-12,6.0,22%,2373,4,26,22.0,9.0,23.0,40.0,5.0,,14.0,
517,Fairfax County Public Schools,Falls Church,38.79763,-77.324219,Fairview Elementary School,PK-6,6.0,8%,683,4,33,8.0,6.0,12.0,67.0,8.0,,14.0,
518,Fairfax County Public Schools,Falls Church,38.876301,-77.405373,Greenbriar West Elementary School,PK-6,6.0,11%,888,4,69,52.0,4.0,10.0,28.0,5.0,,16.0,
519,Fairfax County Public Schools,Falls Church,38.684837,-77.209709,Gunston Elementary School,PK-6,6.0,36%,505,5,10,12.0,30.0,22.0,30.0,7.0,,13.0,
520,Fairfax County Public Schools,Falls Church,38.748833,-77.140694,Hayfield Elementary School,PK-6,6.0,15%,753,4,110,6.0,20.0,13.0,52.0,9.0,,16.0,
521,Fairfax County Public Schools,Falls Church,38.814182,-77.295647,Laurel Ridge Elementary School,PK-6,6.0,7%,850,4,19,11.0,5.0,18.0,59.0,7.0,,13.0,
522,Fairfax County Public Schools,Falls Church,38.90395,-77.195068,Lemon Road Elementary School,PK-6,6.0,18%,616,4,49,37.0,4.0,21.0,31.0,7.0,,13.0,
523,Fairfax County Public Schools,Falls Church,38.826096,-77.267036,Little Run Elementary School,PK-6,6.0,31%,357,4,35,26.0,5.0,23.0,41.0,6.0,,11.0,
524,Fairfax County Public Schools,Falls Church,38.898472,-77.277962,Louise Archer Elementary School,PK-6,6.0,12%,641,4,47,23.0,1.0,15.0,54.0,7.0,,18.0,
525,Fairfax County Public Schools,Falls Church,38.868191,-77.229324,Jackson Middle School,7-8,6.0,40%,1464,4,38,25.0,8.0,36.0,26.0,5.0,,13.0,
526,Fairfax County Public Schools,Falls Church,38.89595,-77.279129,Madison High School,9-12,6.0,10%,2235,4,57,15.0,2.0,13.0,63.0,7.0,,15.0,
527,Fairfax County Public Schools,Falls Church,38.765949,-77.255432,Orange Hunt Elementary School,PK-6,6.0,6%,942,4,66,7.0,7.0,11.0,67.0,7.0,,16.0,
528,Fairfax County Public Schools,Falls Church,38.728371,-77.069084,Stratford Landing Elementary School,PK-6,6.0,23%,784,3,72,3.0,21.0,12.0,55.0,7.0,,17.0,
529,Fairfax County Public Schools,Falls Church,38.888557,-77.239571,Thoreau Middle School,7-8,6.0,8%,945,5,24,12.0,2.0,12.0,66.0,8.0,,14.0,
530,Fairfax County Public Schools,Falls Church,38.790684,-77.113937,Twain Middle School,7-8,6.0,33%,1025,4,24,14.0,18.0,32.0,30.0,6.0,,12.0,
531,Fairfax County Public Schools,Falls Church,38.979736,-77.337967,Aldrin Elementary School,PK-6,6.0,15%,731,4,54,20.0,5.0,16.0,52.0,8.0,,14.0,
532,Fairfax County Public Schools,Falls Church,38.760525,-77.156891,Lane Elementary School,PK-6,6.0,20%,790,5,117,14.0,21.0,17.0,42.0,5.0,,12.0,1.0
533,Fairfax County Public Schools,Falls Church,38.803837,-77.23468,Kings Glen Elementary School,4-6,6.0,25%,495,3,24,20.0,8.0,26.0,37.0,9.0,,12.0,
534,Fairfax County Public Schools,Falls Church,38.782684,-77.270882,White Oaks Elementary School,PK-6,6.0,18%,877,4,52,23.0,10.0,19.0,40.0,9.0,,17.0,
535,Fairfax County Public Schools,Falls Church,38.767994,-77.284454,Cherry Run Elementary School,PK-6,6.0,3%,427,4,41,10.0,5.0,7.0,73.0,6.0,,12.0,
536,Fairfax County Public Schools,Falls Church,38.820484,-77.417603,Union Mill Elementary School,PK-6,6.0,12%,959,4,28,17.0,4.0,11.0,59.0,7.0,,15.0,
537,Fairfax County Public Schools,Falls Church,38.86573,-77.458557,Cub Run Elementary School,PK-6,6.0,18%,571,4,23,15.0,5.0,15.0,56.0,9.0,,12.0,
538,Fairfax County Public Schools,Falls Church,38.890411,-77.411148,Lees Corner Elementary School,PK-6,6.0,14%,779,4,52,32.0,4.0,11.0,45.0,7.0,,13.0,
539,Fairfax County Public Schools,Falls Church,38.825043,-77.411072,Centreville High School,9-12,6.0,25%,2602,4,37,32.0,9.0,19.0,35.0,5.0,,15.0,
540,Fairfax County Public Schools,Falls Church,38.728951,-77.269386,Silverbrook Elementary School,PK-6,6.0,9%,832,4,31,15.0,7.0,9.0,61.0,8.0,,15.0,
541,Fairfax County Public Schools,Falls Church,38.803974,-77.30999,Bonnie Brae Elementary School,PK-6,6.0,18%,791,4,59,15.0,7.0,20.0,50.0,7.0,1.0,14.0,
542,Falls Church City Public Schools,Falls Church,38.896599,-77.191704,Mary Ellen Henderson Middle School,6-8,6.0,0%,588,3,28,7.0,3.0,16.0,65.0,9.0,,11.0,
543,Falls Church City Public Schools,Falls Church,38.883385,-77.183655,Thomas Jefferson Elementary School,2-5,6.0,8%,824,5,47,6.0,3.0,14.0,63.0,13.0,,14.0,
544,Fauquier County Public Schools,Warrenton,38.719543,-77.814293,Fauquier High School,9-12,6.0,17%,1318,4,12,3.0,8.0,14.0,69.0,4.0,,11.0,
545,Fauquier County Public Schools,Warrenton,38.736797,-77.760155,P.B. Smith Elementary School,PK-5,6.0,10%,340,5,21,3.0,4.0,8.0,78.0,6.0,,15.0,
546,Fauquier County Public Schools,Warrenton,38.716122,-77.803223,Warrenton Middle School,6-8,6.0,15%,439,3,11,3.0,9.0,11.0,74.0,4.0,,12.0,
547,Fauquier County Public Schools,Warrenton,38.585976,-77.761024,Grace Miller Elementary School,PK-5,6.0,36%,484,3,15,3.0,12.0,20.0,55.0,9.0,,14.0,
548,Fauquier County Public Schools,Warrenton,38.759815,-77.694878,C. Hunter Ritchie Elementary School,PK-5,6.0,14%,476,5,36,2.0,2.0,12.0,79.0,5.0,,13.0,
549,Floyd County Public Schools,Floyd,36.909348,-80.30925,Floyd County High School,8-12,6.0,43%,840,2,3,1.0,1.0,3.0,91.0,3.0,,16.0,
550,Fluvanna County Public Schools,Palmyra,37.872326,-78.298683,Fluvanna County High School,8-12,6.0,31%,1444,3,18,1.0,16.0,5.0,74.0,5.0,,14.0,
551,Franklin County Public Schools,Rocky Mount,37.079159,-79.750053,Dudley Elementary School,PK-5,6.0,45%,281,5,5,,4.0,3.0,87.0,5.0,1.0,11.0,
552,Franklin County Public Schools,Rocky Mount,37.014748,-79.896057,Gereau Center For Apl Tech&Career Expl,2,6.0,48%,306,5,3,,6.0,6.0,83.0,5.0,,11.0,
553,Franklin County Public Schools,Rocky Mount,37.017818,-79.88488,Ben. Franklin Middle-West,7-8,6.0,48%,761,1,13,1.0,7.0,8.0,77.0,7.0,,14.0,
554,Frederick County Public Schools,Winchester,39.074924,-78.192879,Sherando High School,9-12,6.0,22%,1511,4,21,1.0,5.0,13.0,76.0,5.0,,13.0,
555,Frederick County Public Schools,Winchester,39.21413,-78.183105,James Wood High School,9-12,6.0,23%,1316,3,19,1.0,2.0,6.0,89.0,2.0,,13.0,
556,Galax City Public Schools,Galax,36.6586,-80.92511,Galax Elementary School,PK-4,6.0,70%,578,5,2,1.0,5.0,33.0,58.0,3.0,1.0,14.0,
557,Giles County Public Schools,Pearisburg,37.313782,-80.580208,Eastern Elementary/Middle School,PK-7,6.0,47%,446,4,1,,1.0,1.0,95.0,3.0,,13.0,
558,Gloucester County Public Schools,Gloucester,37.278294,-76.44194,Achilles Elementary School,PK-5,6.0,45%,418,4,19,,5.0,5.0,83.0,7.0,,14.0,
559,Gloucester County Public Schools,Gloucester,37.382084,-76.525726,Gloucester High School,9-12,6.0,31%,1762,3,22,1.0,8.0,4.0,81.0,5.0,,16.0,
560,Gloucester County Public Schools,Gloucester,37.413334,-76.6063,Peasley Middle School,6-8,6.0,35%,623,2,22,,7.0,5.0,82.0,5.0,,12.0,
561,Goochland County Public Schools,Goochland,37.757145,-78.057838,Byrd Elementary School,PK-5,6.0,52%,346,5,17,,22.0,6.0,66.0,5.0,,10.0,
562,Grayson County Public Schools,Independence,36.621338,-81.14682,Independence Middle School,6-8,6.0,67%,249,0,2,,3.0,8.0,88.0,2.0,,13.0,
563,Halifax County Public Schools,Halifax,36.836723,-79.043915,Meadville Elementary School,PK-5,6.0,89%,171,0,0,1.0,31.0,2.0,58.0,9.0,,6.0,
564,Hanover County Public Schools,Ashland,37.664459,-77.410019,Atlee High School,9-12,6.0,7%,1602,4,33,3.0,7.0,2.0,84.0,2.0,,16.0,
565,Hanover County Public Schools,Ashland,37.62619,-77.29641,Battlefield Park Elementary School,PK-5,6.0,14%,468,5,3,2.0,5.0,3.0,84.0,6.0,,13.0,
566,Hanover County Public Schools,Ashland,37.933243,-77.642288,Beaverdam Elementary School,PK-5,6.0,27%,329,5,6,,5.0,4.0,86.0,4.0,,12.0,
567,Hanover County Public Schools,Ashland,37.611008,-77.378716,Mechanicsville Elementary School,PK-5,6.0,51%,641,4,7,3.0,17.0,6.0,66.0,8.0,,13.0,
568,Hanover County Public Schools,Ashland,37.645649,-77.383911,Washington-Henry Elementary School,PK-5,6.0,19%,414,5,17,3.0,7.0,4.0,81.0,5.0,,14.0,
569,Henrico County Public Schools,Richmond,37.624779,-77.482368,Moody Middle School,6-8,6.0,25%,1037,4,53,30.0,15.0,6.0,44.0,5.0,,17.0,
570,Henrico County Public Schools,Richmond,37.62376,-77.559792,Davis Elementary School,PK-5,6.0,30%,550,4,28,25.0,15.0,7.0,47.0,6.0,,15.0,
571,Henrico County Public Schools,Richmond,37.607826,-77.560738,Tuckahoe Middle School,6-8,6.0,28%,1150,3,66,6.0,10.0,11.0,69.0,5.0,,16.0,
572,Henry County Public Schools,Martinsville,36.684967,-79.779411,Laurel Park Middle School,6-8,6.0,85%,777,2,24,1.0,27.0,13.0,52.0,6.0,,15.0,
573,Henry County Public Schools,Martinsville,36.737198,-79.940048,Stanleytown Elementary School,PK-5,6.0,85%,300,5,9,,19.0,12.0,62.0,7.0,,14.0,
574,King And Queen County Public Schools,King and Queen Court House,37.613773,-76.782768,King & Queen Elementary School,PK-7,6.0,54%,306,4,13,,30.0,7.0,57.0,6.0,,16.0,
575,King And Queen County Public Schools,King and Queen Court House,37.823853,-77.062035,Lawson-Marriott Elementary School,PK-7,6.0,57%,316,4,8,1.0,41.0,3.0,46.0,9.0,1.0,13.0,
576,King Geo County Public Schools,King George,38.276363,-77.198296,King George High School,9-12,6.0,28%,1300,4,17,1.0,19.0,6.0,67.0,6.0,,14.0,
577,King Geo County Public Schools,King George,38.336086,-77.052757,Potomac Elementary School,K-6,6.0,33%,718,4,19,2.0,17.0,8.0,62.0,11.0,1.0,16.0,
578,Lee County Public Schools,Jonesville,36.780975,-82.942513,Dryden Elementary School,PK-5,6.0,80%,319,4,3,,1.0,1.0,98.0,1.0,,19.0,
579,Lee County Public Schools,Jonesville,36.684235,-83.123688,Jonesville Middle School,6-8,6.0,91%,210,4,2,,,,98.0,1.0,,9.0,
580,Lexington City Public Schools,Lexington,37.786007,-79.433907,Lylburn Downing Middle School,6-8,6.0,23%,202,3,5,4.0,10.0,7.0,79.0,,,15.0,
581,Loudoun County Public Schools,Broadlands,39.002274,-77.788101,Banneker Elementary School,PK-5,6.0,38%,160,4,42,1.0,6.0,24.0,67.0,2.0,,14.0,
582,Loudoun County Public Schools,Broadlands,39.110435,-77.580681,Loudoun County High School,9-12,6.0,16%,1505,4,16,7.0,5.0,19.0,64.0,4.0,,15.0,
583,Loudoun County Public Schools,Broadlands,39.265564,-77.640343,Lovettsville Elementary School,PK-5,6.0,10%,544,5,12,2.0,2.0,8.0,80.0,8.0,,14.0,
584,Loudoun County Public Schools,Broadlands,39.213642,-77.53344,Lucketts Elementary School,PK-5,6.0,16%,304,4,6,5.0,6.0,19.0,62.0,8.0,,14.0,
585,Loudoun County Public Schools,Broadlands,39.037735,-77.473091,Farmwell Station Middle School,6-8,6.0,18%,1158,3,43,24.0,11.0,14.0,46.0,5.0,1.0,14.0,
586,Loudoun County Public Schools,Broadlands,39.123028,-77.535202,Ball's Bluff Elementary School,PK-5,6.0,22%,628,4,17,8.0,9.0,23.0,52.0,6.0,1.0,15.0,1.0
587,Loudoun County Public Schools,Broadlands,39.037796,-77.510445,Sanders Corner Elementary School,PK-5,6.0,12%,565,3,100,13.0,7.0,11.0,60.0,8.0,,17.0,
588,Loudoun County Public Schools,Broadlands,39.05196,-77.390388,Potomac Falls High School,9-12,6.0,22%,1665,3,54,13.0,9.0,22.0,51.0,5.0,,14.0,
589,Loudoun County Public Schools,Broadlands,39.036316,-77.371292,Meadowland Elementary School,PK-5,6.0,46%,426,4,41,15.0,4.0,42.0,33.0,6.0,,13.0,
590,Louisa County Public Schools,Mineral,38.018867,-77.918648,Louisa County High School,9-12,6.0,40%,1468,4,27,1.0,18.0,5.0,70.0,6.0,,12.0,
591,Louisa County Public Schools,Mineral,37.89978,-77.844383,Jouett Elementary School,PK-5,6.0,45%,583,4,22,,8.0,3.0,83.0,5.0,1.0,13.0,
592,Madison County Public Schools,Madison,38.363575,-78.268074,Madison County High School,9-12,6.0,38%,542,3,2,1.0,9.0,4.0,82.0,5.0,,13.0,
593,Mecklenburg County Public Schools,Boydton,36.689285,-78.197067,Park View Middle School,6-8,6.0,60%,602,4,9,1.0,41.0,6.0,49.0,3.0,,13.0,
594,Middlesex County Public Schools,Saluda,37.59211,-76.498016,St. Clare Walker Middle School,6-8,6.0,52%,299,4,10,,20.0,4.0,73.0,3.0,,12.0,
595,Montgomery County Public Schools,Christiansburg,37.125862,-80.371872,Falling Branch Elementary School,PK-5,6.0,46%,520,4,10,1.0,7.0,4.0,83.0,5.0,,12.0,
596,Montgomery County Public Schools,Christiansburg,37.215683,-80.456726,Kipps Elementary School,K-5,6.0,17%,400,4,27,13.0,2.0,6.0,76.0,4.0,,11.0,
597,Montgomery County Public Schools,Christiansburg,37.214737,-80.461357,Blacksburg Middle School,6-8,6.0,19%,904,3,13,8.0,4.0,4.0,79.0,5.0,,14.0,
598,Nelson County Public Schools,Lovingston,37.733265,-78.894829,Nelson Middle School,6-8,6.0,52%,433,4,10,1.0,11.0,6.0,76.0,6.0,,12.0,
599,New Kent County Public Schools,New Kent,37.513805,-76.981934,New Kent Elementary School,PK-5,6.0,27%,795,3,14,1.0,9.0,8.0,74.0,7.0,1.0,13.0,
600,Norfolk City Public Schools,Norfolk,36.935715,-76.258415,Mary Calcott Elementary School,PK-5,6.0,52%,557,4,45,4.0,17.0,16.0,50.0,12.0,,15.0,
601,Norfolk City Public Schools,Norfolk,36.868839,-76.304558,W.H. Taylor Elementary School,PK-5,6.0,37%,351,4,38,3.0,35.0,5.0,50.0,7.0,,16.0,
602,Norton City Public Schools,Norton,36.929928,-82.633408,J.I. Burton High School,8-12,6.0,92%,306,4,4,1.0,8.0,3.0,82.0,7.0,,12.0,
603,Orange County Public Schools,Orange,38.245052,-78.094559,Orange Co. High School,9-12,6.0,34%,1484,3,8,1.0,16.0,7.0,68.0,8.0,,16.0,
604,Orange County Public Schools,Orange,38.298485,-77.831482,Locust Grove Elementary School,3-5,6.0,48%,429,5,16,1.0,11.0,8.0,71.0,8.0,,15.0,
605,Page County Public Schools,Luray,38.563499,-78.610184,Page County High School,9-12,6.0,45%,552,5,8,,1.0,5.0,94.0,1.0,,13.0,
606,Page County Public Schools,Luray,38.728504,-78.421326,Springfield Elementary School,PK-5,6.0,52%,256,5,7,,4.0,2.0,90.0,4.0,,13.0,
607,Patrick County Public Schools,Stuart,36.63192,-80.146301,Hardin Reynolds Elementary School,4-7,6.0,52%,217,0,0,1.0,9.0,8.0,76.0,5.0,,15.0,
608,Pittsylvania County Public Schools,Chatham,36.840553,-79.396774,Chatham Elementary School,PK-5,6.0,66%,232,5,9,1.0,28.0,6.0,66.0,,,13.0,
609,Pittsylvania County Public Schools,Chatham,36.654739,-79.305534,Dan River Middle School,6-8,6.0,61%,517,5,4,,25.0,3.0,69.0,3.0,,12.0,
610,Pittsylvania County Public Schools,Chatham,36.64027,-79.563538,Stony Mill Elementary School,PK-5,6.0,61%,485,5,3,,12.0,11.0,74.0,3.0,,13.0,
611,Pittsylvania County Public Schools,Chatham,36.669495,-79.524529,Tunstall High School,9-12,6.0,41%,948,4,3,1.0,12.0,5.0,80.0,2.0,,15.0,
612,Portsmouth City Public Schools,Portsmouth,36.858097,-76.384384,Churchland Elementary School,K-6,6.0,40%,834,4,21,3.0,46.0,5.0,42.0,4.0,1.0,17.0,
613,Powhatan County Public Schools,Powhatan,37.551483,-77.934418,Powhatan Elementary School,K-5,6.0,19%,545,5,14,1.0,2.0,4.0,90.0,4.0,,14.0,
614,Prince George County Public Schools,Prince George,37.152802,-77.285233,J.E.J. Moore Middle School,6-7,6.0,44%,979,1,15,1.0,33.0,12.0,46.0,7.0,1.0,13.0,1.0
615,Prince William County Public Schools,Manassas,38.787476,-77.506897,C.A. Sinclair Elementary School,PK-5,6.0,78%,748,4,22,9.0,14.0,62.0,12.0,2.0,,15.0,
616,Prince William County Public Schools,Manassas,38.763378,-77.449356,Osbourn Park High School,9-12,6.0,34%,2201,5,34,15.0,16.0,33.0,30.0,5.0,,18.0,
617,Prince William County Public Schools,Manassas,38.651012,-77.280396,Woodbridge Middle School,6-8,6.0,49%,1361,3,68,10.0,22.0,41.0,20.0,7.0,,17.0,
618,Prince William County Public Schools,Manassas,38.685474,-77.326004,Springwoods Elementary School,PK-5,6.0,24%,711,4,64,7.0,23.0,22.0,40.0,8.0,,19.0,1.0
619,Prince William County Public Schools,Manassas,38.621624,-77.343819,A. Henderson Elementary School,PK-5,6.0,26%,820,4,35,9.0,21.0,24.0,36.0,9.0,,16.0,1.0
620,Prince William County Public Schools,Manassas,38.649986,-77.377312,Sharon C. Mcauliffe Elementary School,PK-5,6.0,55%,445,3,21,8.0,16.0,52.0,20.0,4.0,,13.0,
621,Prince William County Public Schools,Manassas,38.685013,-77.335716,Westridge Elementary School,PK-5,6.0,23%,750,4,55,10.0,27.0,12.0,41.0,9.0,1.0,18.0,1.0
622,Prince William County Public Schools,Manassas,38.693394,-77.29805,Antietam Elementary School,PK-5,6.0,33%,675,4,32,9.0,22.0,27.0,35.0,7.0,,16.0,
623,Pulaski County Public Schools,Pulaski,37.15239,-80.56398,Riverlawn Elementary School,PK-5,6.0,82%,385,5,1,2.0,4.0,7.0,79.0,8.0,,15.0,
624,Radford City Public Schools,Radford,37.132195,-80.557297,Belle Heth Elementary School,3-6,6.0,48%,475,5,1,,10.0,5.0,76.0,9.0,,13.0,
625,Radford City Public Schools,Radford,37.135345,-80.568993,Radford High School,9-12,6.0,35%,508,3,9,1.0,9.0,5.0,79.0,6.0,,10.0,
626,Rappahannock County Public Schools,Washington,38.688725,-78.175911,Rappahannock Co. High School,8-12,6.0,27%,359,4,5,,3.0,5.0,87.0,3.0,,21.0,
627,Rappahannock County Public Schools,Washington,38.688725,-78.175911,Rappahannock County Elementary School,PK-7,6.0,40%,492,4,20,,2.0,5.0,84.0,9.0,,13.0,
628,Richmond City Public Schools,Richmond,37.5634,-77.499901,Mary Munford Elementary School,PK-5,6.0,99%,502,5,42,2.0,12.0,6.0,73.0,7.0,,17.0,
629,Richmond City Public Schools,Richmond,37.554386,-77.468033,William Fox Elementary School,PK-5,6.0,99%,511,4,27,3.0,20.0,9.0,62.0,6.0,1.0,19.0,
630,Richmond County Public Schools,Warsaw,37.949074,-76.743484,Rappahannock High School,8-12,6.0,51%,475,3,3,1.0,28.0,9.0,60.0,3.0,,14.0,
631,Richmond County Public Schools,Warsaw,37.947945,-76.745659,Richmond County Elementary School,PK-7,6.0,60%,847,5,1,,26.0,14.0,55.0,5.0,,15.0,
632,Roanoke City Public Schools,Roanoke,37.266277,-79.976822,Virginia Heights Elementary School,PK-5,6.0,99%,322,4,11,10.0,20.0,12.0,54.0,4.0,,13.0,
633,Roanoke County Public Schools,Roanoke,37.2808,-80.139198,Glenvar Middle School,6-8,6.0,28%,451,4,8,2.0,2.0,4.0,90.0,2.0,,17.0,
634,Roanoke County Public Schools,Roanoke,37.199501,-80.072403,Back Creek Elementary School,PK-5,6.0,22%,292,5,14,2.0,1.0,3.0,93.0,2.0,,17.0,
635,Roanoke County Public Schools,Roanoke,37.328499,-79.998901,Northside High School,9-12,6.0,34%,912,5,6,6.0,14.0,7.0,65.0,7.0,,19.0,
636,Roanoke County Public Schools,Roanoke,37.3302,-80.000397,Northside Middle School,6-8,6.0,41%,705,1,7,6.0,16.0,8.0,62.0,6.0,,18.0,
637,Roanoke County Public Schools,Roanoke,37.2463,-80.033699,Oak Grove Elementary School,PK-5,6.0,31%,400,4,17,7.0,8.0,9.0,69.0,6.0,,18.0,
638,Roanoke County Public Schools,Roanoke,37.284,-79.858498,William Byrd High School,9-12,6.0,27%,1057,2,8,2.0,5.0,2.0,87.0,4.0,,18.0,
639,Roanoke County Public Schools,Roanoke,37.284901,-79.860497,William Byrd Middle School,6-8,6.0,35%,809,3,19,2.0,6.0,4.0,84.0,4.0,,17.0,
640,Rockbridge County Public Schools,Lexington,37.781193,-79.43457,Central Elementary School,PK-5,6.0,45%,530,5,3,,3.0,3.0,88.0,3.0,1.0,13.0,
641,Rockbridge County Public Schools,Lexington,37.877155,-79.293777,Fairfield Elementary School,PK-5,6.0,58%,312,5,2,,1.0,8.0,88.0,3.0,,13.0,
642,Rockingham County Public Schools,Harrisonburg,38.371304,-78.735794,Mcgaheysville Elementary School,PK-5,6.0,38%,261,5,6,1.0,3.0,17.0,77.0,2.0,,12.0,
643,Russell County Public Schools,Lebanon,36.871151,-82.296066,Castlewood Elementary School,1-7,6.0,95%,442,3,2,,,2.0,97.0,1.0,,17.0,
644,Salem City Public Schools,Salem,37.285805,-80.056305,G.W. Carver Elementary School,K-5,6.0,54%,438,3,5,3.0,26.0,4.0,63.0,3.0,,12.0,
645,Salem City Public Schools,Salem,37.296783,-80.074509,West Salem Elementary School,K-5,6.0,30%,439,3,9,1.0,6.0,1.0,89.0,3.0,,13.0,
646,Salem City Public Schools,Salem,37.277763,-80.082893,South Salem Elementary School,K-5,6.0,35%,421,4,20,2.0,6.0,4.0,83.0,5.0,,14.0,
647,Scott County Public Schools,Gate City,36.831306,-82.466194,Dungannon Intermediate School,4-7,6.0,91%,68,0,0,,,3.0,97.0,,,9.0,
648,Scott County Public Schools,Gate City,36.640102,-82.569443,Gate City High School,10-12,6.0,46%,492,2,10,1.0,1.0,2.0,94.0,2.0,,15.0,
649,Smyth County Public Schools,Marion,36.80447,-81.672798,Chilhowie Middle School,6-8,6.0,53%,331,4,1,1.0,1.0,4.0,95.0,1.0,,15.0,
650,Smyth County Public Schools,Marion,36.840946,-81.498924,Marion Primary School,PK-5,6.0,90%,359,3,1,2.0,6.0,3.0,90.0,,,14.0,
651,Smyth County Public Schools,Marion,36.878845,-81.763847,Northwood High School,9-12,6.0,63%,281,3,2,1.0,1.0,2.0,96.0,,,11.0,
652,Southampton County Public Schools,Courtland,36.704659,-77.189819,Capron Elementary School,PK-5,6.0,60%,190,5,1,,43.0,3.0,45.0,8.0,1.0,10.0,1.0
653,Southampton County Public Schools,Courtland,36.691338,-76.98455,Riverdale Elementary School,PK-5,6.0,54%,542,4,3,1.0,48.0,1.0,47.0,3.0,,14.0,
654,Southampton County Public Schools,Courtland,36.70113,-77.102554,Southampton Middle School,6-8,6.0,45%,607,1,6,,43.0,2.0,53.0,1.0,,15.0,
655,Spotsylvania County Public Schools,Fredericksburg,38.263695,-77.541252,Battlefield Elementary School,PK-5,6.0,46%,645,3,36,2.0,16.0,25.0,45.0,11.0,,15.0,
656,Stafford County Public Schools,Stafford,38.293968,-77.432457,Ferry Farm Elementary School,PK-5,6.0,32%,637,4,29,2.0,10.0,12.0,68.0,8.0,,15.0,
657,Stafford County Public Schools,Stafford,38.441654,-77.453201,Winding Creek Elementary School,PK-5,6.0,15%,918,4,20,4.0,16.0,20.0,50.0,10.0,1.0,16.0,
658,Stafford County Public Schools,Stafford,38.47681,-77.478714,Rockhill Elementary School,PK-5,6.0,29%,568,4,57,1.0,17.0,19.0,54.0,8.0,,15.0,1.0
659,Staunton City Public Schools,Staunton,38.1637,-79.057091,Thomas C. Mcswain Elementary School,K-5,6.0,42%,427,4,17,,13.0,4.0,71.0,11.0,,14.0,
660,Sussex County Public Schools,Stony Creek,36.919846,-77.257103,Sussex Central Middle School,6-8,6.0,79%,234,0,0,,69.0,6.0,21.0,3.0,,10.0,
661,Tazewell County Public Schools,Tazewell,37.08807,-81.763397,Cedar Bluff Elementary School,PK-5,6.0,51%,427,3,6,,,,99.0,,,20.0,
662,Tazewell County Public Schools,Tazewell,37.252197,-81.279449,Graham Intermediate School,3-5,6.0,55%,280,0,0,1.0,9.0,,83.0,7.0,,15.0,
663,Tazewell County Public Schools,Tazewell,37.237614,-81.271965,Graham High School,9-12,6.0,47%,520,3,4,2.0,5.0,1.0,90.0,3.0,,15.0,
664,VA Beach City Public Schools,Virginia Beach,36.773952,-76.101807,Landstown Elementary School,PK-5,6.0,38%,782,5,11,14.0,22.0,12.0,42.0,9.0,,15.0,1.0
665,VA Beach City Public Schools,Virginia Beach,36.815262,-76.141457,Larkspur Middle School,6-8,6.0,53%,1557,3,61,6.0,35.0,16.0,32.0,10.0,,14.0,1.0
666,VA Beach City Public Schools,Virginia Beach,36.793003,-76.192642,Brandon Middle School,6-8,6.0,44%,1216,2,85,6.0,37.0,11.0,35.0,10.0,,14.0,1.0
667,VA Beach City Public Schools,Virginia Beach,36.804417,-76.211426,College Park Elementary School,PK-5,6.0,70%,550,4,38,4.0,63.0,10.0,14.0,8.0,,13.0,1.0
668,VA Beach City Public Schools,Virginia Beach,36.816383,-76.178955,Fairfield Elementary School,PK-5,6.0,31%,551,4,31,9.0,19.0,7.0,54.0,10.0,,16.0,1.0
669,VA Beach City Public Schools,Virginia Beach,36.87355,-76.028755,First Colonial High School,9-12,6.0,29%,1849,4,55,2.0,17.0,11.0,62.0,7.0,,15.0,
670,VA Beach City Public Schools,Virginia Beach,36.81712,-76.142014,Kempsville Meadows Elementary School,PK-5,6.0,43%,491,5,7,4.0,25.0,13.0,42.0,14.0,,13.0,1.0
671,VA Beach City Public Schools,Virginia Beach,36.867401,-76.036469,Lynnhaven Middle School,6-8,6.0,36%,923,3,48,4.0,17.0,11.0,60.0,8.0,,15.0,
672,VA Beach City Public Schools,Virginia Beach,36.864986,-76.127739,Pembroke Meadows Elementary School,PK-5,6.0,44%,502,5,22,4.0,23.0,13.0,51.0,9.0,,15.0,
673,VA Beach City Public Schools,Virginia Beach,36.846416,-76.121712,Thalia Elementary School,PK-5,6.0,51%,612,4,44,4.0,28.0,13.0,43.0,11.0,,14.0,
674,VA Beach City Public Schools,Virginia Beach,36.851036,-75.985855,Virginia Beach Middle School,6-8,6.0,40%,879,3,21,2.0,21.0,12.0,55.0,10.0,,16.0,
675,VA Beach City Public Schools,Virginia Beach,36.803787,-76.122749,White Oaks Elementary School,PK-5,6.0,55%,601,4,24,3.0,30.0,21.0,33.0,11.0,1.0,17.0,
676,VA Beach City Public Schools,Virginia Beach,36.831554,-76.103004,Windsor Woods Elementary School,PK-5,6.0,52%,385,5,10,3.0,22.0,18.0,47.0,9.0,,11.0,1.0
677,VA Beach City Public Schools,Virginia Beach,36.798298,-76.146034,Indian Lakes Elementary School,PK-5,6.0,41%,603,4,28,6.0,23.0,12.0,47.0,11.0,1.0,15.0,1.0
678,Washington County Public Schools,Abingdon,36.649952,-82.131004,Wallace Middle School,6-8,6.0,49%,480,5,1,,,2.0,93.0,4.0,,14.0,
679,Williamsburg-James City Public Schools,Williamsburg,37.376431,-76.800507,Toano Middle School,6-8,6.0,28%,820,4,27,2.0,16.0,8.0,66.0,8.0,,16.0,
680,Williamsburg-James City Public Schools,Williamsburg,37.364304,-76.769447,Norge Elementary School,PK-5,6.0,48%,635,4,19,4.0,15.0,15.0,55.0,9.0,1.0,18.0,
681,Williamsburg-James City Public Schools,Williamsburg,37.332912,-76.757118,Rawls Byrd Elementary School,PK-5,6.0,51%,517,4,25,2.0,14.0,14.0,57.0,11.0,1.0,17.0,
682,Wise County Public Schools,Wise,36.880543,-82.737701,Union High School,9-12,6.0,52%,678,4,6,,3.0,1.0,96.0,,,14.0,
683,Wythe County Public Schools,Wytheville,36.941223,-81.102417,George Wythe High School,9-12,6.0,47%,441,2,2,1.0,11.0,3.0,82.0,2.0,,14.0,
684,Wythe County Public Schools,Wytheville,36.896183,-81.269402,Rural Retreat High School,9-12,6.0,44%,367,4,4,,1.0,2.0,96.0,2.0,,10.0,
685,York County Public Schools,Yorktown,37.28344,-76.67186,Queens Lake Middle School,6-8,6.0,26%,465,4,19,3.0,19.0,11.0,57.0,10.0,,15.0,1.0
686,York County Public Schools,Yorktown,37.199036,-76.505196,Yorktown Elementary School,PK-5,6.0,47%,662,4,59,3.0,25.0,12.0,45.0,13.0,,15.0,
687,Loudoun County Public Schools,Broadlands,39.038609,-77.490021,Cedar Lane Elementary School,PK-5,6.0,17%,797,4,35,26.0,9.0,15.0,44.0,5.0,1.0,15.0,
688,Montgomery County Public Schools,Christiansburg,37.061401,-80.442596,Auburn Middle School,6-8,6.0,40%,270,3,2,,1.0,4.0,93.0,3.0,,12.0,
689,Nelson County Public Schools,Lovingston,37.945187,-78.837898,Rockfish River Elementary School,PK-5,6.0,54%,358,5,2,1.0,7.0,10.0,75.0,7.0,,13.0,
690,Botetourt County Public Schools,Fincastle,37.428692,-79.928429,Greenfield Elementary School,PK-5,6.0,32%,421,4,21,2.0,2.0,14.0,80.0,2.0,,14.0,
691,Chesapeake Public Schools,Chesapeake,36.759174,-76.226364,Greenbrier Middle School,6-8,6.0,33%,910,3,12,6.0,35.0,12.0,34.0,11.0,,13.0,
692,Hanover County Public Schools,Ashland,37.638149,-77.308472,Pole Green Elementary School,PK-5,6.0,14%,610,5,14,3.0,5.0,4.0,82.0,6.0,,16.0,
693,Prince William County Public Schools,Manassas,38.656937,-77.430573,Louise A. Benton Middle School,6-8,6.0,16%,1434,4,46,6.0,14.0,18.0,55.0,7.0,,17.0,
